{"feeds":[{"id":1,"code":"STM","timezone":"America/Montreal","bounds":{"min_lat":45.3081,"max_lat":45.7916,"min_lon":-74.0894,"max_lon":-73.3465},"bgtfs_hash":"5b3296350b420532e1db566d587d429e","bgtfs_feed_version":35074680,"bgtfs_uploaded_at":"2021-02-11T13:41:00Z","start_date":"2021-02-10","end_date":"2021-03-21","name":"STM","feed_network_name":null,"location":"Montréal","country_code":"CA"},{"id":2,"code":"RTL","timezone":"America/Montreal","bounds":{"min_lat":45.3316,"max_lat":45.7254,"min_lon":-73.7,"max_lon":-73.1732},"bgtfs_hash":"b06be2d5f8c4a76c8004fa619319464c","bgtfs_feed_version":35011498,"bgtfs_uploaded_at":"2021-02-04T06:09:58Z","start_date":"2021-02-04","end_date":"2021-04-04","name":"Réseau de Transport de Longueuil","feed_network_name":"RTL","location":"Montréal","country_code":"CA"},{"id":3,"code":"STL","timezone":"America/Montreal","bounds":{"min_lat":45.4103,"max_lat":45.7933,"min_lon":-74.0124,"max_lon":-73.4068},"bgtfs_hash":"d58fcc5968fcab6c10c0cacdba32f5d0","bgtfs_feed_version":34760983,"bgtfs_uploaded_at":"2021-01-06T06:17:24Z","start_date":"2021-01-06","end_date":"2021-03-19","name":"STL","feed_network_name":null,"location":"Montréal","country_code":"CA"},{"id":4,"code":"AMTTRAINS","timezone":"America/Montreal","bounds":{"min_lat":45.2711,"max_lat":45.8633,"min_lon":-74.2747,"max_lon":-73.0453},"bgtfs_hash":"98188414b749ce138e66a8cc817f5b9e","bgtfs_feed_version":35022582,"bgtfs_uploaded_at":"2021-02-05T12:57:09Z","start_date":"2021-02-05","end_date":"2021-05-30","name":"exo (Trains, RTM ex-AMT)","feed_network_name":"exo","location":"Montréal","country_code":"CA"},{"id":6,"code":"RTC","timezone":"America/Montreal","bounds":{"min_lat":46.6423,"max_lat":47.0353,"min_lon":-71.6048,"max_lon":-71.0196},"bgtfs_hash":"389550ed8bcb76661bb7648ff080d85a","bgtfs_feed_version":34881988,"bgtfs_uploaded_at":"2021-01-20T06:24:57Z","start_date":"2021-01-20","end_date":"2021-06-18","name":"Réseau de transport de la Capitale","feed_network_name":"RTC","location":"Québec","country_code":"CA"},{"id":7,"code":"OMITSJU","timezone":"America/Montreal","bounds":{"min_lat":45.4031,"max_lat":45.7258,"min_lon":-73.6989,"max_lon":-73.1543},"bgtfs_hash":"9d33947a2e4474afacc9c5cdd60b671e","bgtfs_feed_version":34808859,"bgtfs_uploaded_at":"2021-01-11T19:16:43Z","start_date":"2021-01-11","end_date":"2021-05-30","name":"exo Sainte-Julie (RTM ex-OMIT)","feed_network_name":"exo Sainte-Julie","location":"Montréal","country_code":"CA"},{"id":8,"code":"MRCLM","timezone":"America/Montreal","bounds":{"min_lat":45.4618,"max_lat":45.8957,"min_lon":-73.9716,"max_lon":-73.3665},"bgtfs_hash":"2a9082cf4fffc7197d190311c8d4f17a","bgtfs_feed_version":34914057,"bgtfs_uploaded_at":"2021-01-23T23:29:37Z","start_date":"2021-01-23","end_date":"2021-06-20","name":"exo Terrebonne-Mascouche (RTM ex-Urbis ex-MRC Les Moulins)","feed_network_name":"exo Terrebonne-Mascouche","location":"Montréal","country_code":"CA"},{"id":9,"code":"MRC2M","timezone":"America/Montreal","bounds":{"min_lat":45.3678,"max_lat":45.6557,"min_lon":-74.3374,"max_lon":-73.759},"bgtfs_hash":"98e1320ab6a70d24cb8167fcff5d7f25","bgtfs_feed_version":35066502,"bgtfs_uploaded_at":"2021-02-10T14:57:12Z","start_date":"2021-02-10","end_date":"2021-03-10","name":"exo Deux-Montagnes (Express d'Oka, RTM ex-MRC)","feed_network_name":"exo Deux-Montagnes (Express d'Oka)","location":"Montréal","country_code":"CA"},{"id":10,"code":"MRCLASSO","timezone":"America/Montreal","bounds":{"min_lat":45.4974,"max_lat":45.9923,"min_lon":-73.6745,"max_lon":-73.1499},"bgtfs_hash":"a6f1a48bd0cbabffb961d78eb137973b","bgtfs_feed_version":34824837,"bgtfs_uploaded_at":"2021-01-13T15:39:36Z","start_date":"2021-01-13","end_date":"2021-06-20","name":"exo L'Assomption (RTM ex-MRC)","feed_network_name":"exo L'Assomption","location":"Montréal","country_code":"CA"},{"id":11,"code":"CITVR","timezone":"America/Montreal","bounds":{"min_lat":45.402,"max_lat":45.7432,"min_lon":-73.6981,"max_lon":-72.7603},"bgtfs_hash":"893acd0891284af9a5c08aa69d70def3","bgtfs_feed_version":35016433,"bgtfs_uploaded_at":"2021-02-04T19:52:21Z","start_date":"2021-02-04","end_date":"2021-05-30","name":"exo Vallée-du-Richelieu (RTM ex-CIT)","feed_network_name":"exo Vallée-du-Richelieu","location":"Montréal","country_code":"CA"},{"id":12,"code":"CITSO","timezone":"America/Montreal","bounds":{"min_lat":45.1573,"max_lat":45.5876,"min_lon":-74.2724,"max_lon":-73.4333},"bgtfs_hash":"99c08b5e91cb322cad94832c1bdb9562","bgtfs_feed_version":34907790,"bgtfs_uploaded_at":"2021-01-23T06:05:13Z","start_date":"2021-01-23","end_date":"2021-05-30","name":"exo Sud-Ouest (RTM ex-CIT)","feed_network_name":"exo Sud-Ouest","location":"Montréal","country_code":"CA"},{"id":13,"code":"CITSV","timezone":"America/Montreal","bounds":{"min_lat":45.4298,"max_lat":46.1317,"min_lon":-73.657,"max_lon":-72.9513},"bgtfs_hash":"93c6264d9fbb840575782ab966ce8b43","bgtfs_feed_version":34808866,"bgtfs_uploaded_at":"2021-01-11T19:17:47Z","start_date":"2021-01-11","end_date":"2021-05-30","name":"exo Sorel-Varennes (RTM ex-CIT)","feed_network_name":"exo Sorel-Varennes","location":"Montréal","country_code":"CA"},{"id":14,"code":"CITROUS","timezone":"America/Montreal","bounds":{"min_lat":45.2675,"max_lat":45.6357,"min_lon":-73.7799,"max_lon":-73.3304},"bgtfs_hash":"3999d6621344dac0c26694a6dd1fe24d","bgtfs_feed_version":34890491,"bgtfs_uploaded_at":"2021-01-21T06:02:01Z","start_date":"2021-01-21","end_date":"2021-05-30","name":"exo Roussillon (RTM ex-CIT)","feed_network_name":"exo Roussillon","location":"Montréal","country_code":"CA"},{"id":15,"code":"CITLR","timezone":"America/Montreal","bounds":{"min_lat":45.2564,"max_lat":45.6421,"min_lon":-73.6987,"max_lon":-73.2529},"bgtfs_hash":"9401ee2ffcefb51c8012fbbe420a4db8","bgtfs_feed_version":34890496,"bgtfs_uploaded_at":"2021-01-21T06:02:54Z","start_date":"2021-01-21","end_date":"2021-05-30","name":"exo Le Richelain (RTM ex-CIT)","feed_network_name":"exo Le Richelain","location":"Montréal","country_code":"CA"},{"id":16,"code":"CRTL","timezone":"America/Montreal","bounds":{"min_lat":45.4955,"max_lat":46.7725,"min_lon":-74.3607,"max_lon":-73.0398},"bgtfs_hash":"78fddfb1dbf33b4edd88f57bd14cd0ae","bgtfs_feed_version":34925048,"bgtfs_uploaded_at":"2021-01-25T06:01:31Z","start_date":"2021-01-25","end_date":"2021-02-25","name":"Lanaudière (CRTL, hors territoire exo/RTM)","feed_network_name":"Lanaudière (CRTL)","location":"Montréal","country_code":"CA"},{"id":17,"code":"CITPI","timezone":"America/Montreal","bounds":{"min_lat":45.2584,"max_lat":45.6071,"min_lon":-74.4484,"max_lon":-73.5488},"bgtfs_hash":"162ed18a79ec9742eb3d4fc50d245f29","bgtfs_feed_version":34808890,"bgtfs_uploaded_at":"2021-01-11T19:21:52Z","start_date":"2021-01-11","end_date":"2021-05-30","name":"exo La Presqu'Île (RTM ex-CIT)","feed_network_name":"exo La Presqu'Île","location":"Montréal","country_code":"CA"},{"id":18,"code":"CITLA","timezone":"America/Montreal","bounds":{"min_lat":45.393,"max_lat":45.9044,"min_lon":-74.1847,"max_lon":-73.4325},"bgtfs_hash":"ce705fed2e12768487badf474f197fae","bgtfs_feed_version":34959650,"bgtfs_uploaded_at":"2021-01-29T06:08:37Z","start_date":"2021-01-29","end_date":"2021-06-20","name":"exo Laurentides (RTM ex-CIT)","feed_network_name":"exo Laurentides","location":"Montréal","country_code":"CA"},{"id":19,"code":"CITHSL","timezone":"America/Montreal","bounds":{"min_lat":45.1383,"max_lat":45.5912,"min_lon":-73.9446,"max_lon":-73.4323},"bgtfs_hash":"25a28ed03038b8c570dd1ecc1176de0a","bgtfs_feed_version":34954100,"bgtfs_uploaded_at":"2021-01-28T14:43:33Z","start_date":"2021-01-28","end_date":"2021-03-28","name":"exo Haut-Saint-Laurent (RTM ex-CIT)","feed_network_name":"exo Haut-Saint-Laurent","location":"Montréal","country_code":"CA"},{"id":20,"code":"CITCRC","timezone":"America/Montreal","bounds":{"min_lat":45.2029,"max_lat":45.6349,"min_lon":-73.7007,"max_lon":-73.0087},"bgtfs_hash":"f5b8551da82a884b5de965432af5a21a","bgtfs_feed_version":34808875,"bgtfs_uploaded_at":"2021-01-11T19:19:17Z","start_date":"2021-01-11","end_date":"2021-05-30","name":"exo Chambly-Richelieu-Carignan (RTM ex-CIT)","feed_network_name":"exo Chambly-Richelieu-Carignan","location":"Montréal","country_code":"CA"},{"id":21,"code":"TTC","timezone":"America/Toronto","bounds":{"min_lat":43.4943,"max_lat":44.0062,"min_lon":-79.7838,"max_lon":-78.9946},"bgtfs_hash":"6595afad793dcda27b46d09ee9e46e5e","bgtfs_feed_version":35033973,"bgtfs_uploaded_at":"2021-02-06T20:36:19Z","start_date":"2021-02-06","end_date":"2021-03-27","name":"TTC Buses and Streetcars","feed_network_name":"TTC","location":"Toronto","country_code":"CA"},{"id":22,"code":"GOTRANSIT","timezone":"America/Toronto","bounds":{"min_lat":42.9987,"max_lat":44.5252,"min_lon":-80.6734,"max_lon":-78.1524},"bgtfs_hash":"23fdde80bab0df65a17d5b7c6e952195","bgtfs_feed_version":35037537,"bgtfs_uploaded_at":"2021-02-07T06:29:47Z","start_date":"2021-02-07","end_date":"2021-04-09","name":"GO Transit","feed_network_name":null,"location":"Toronto","country_code":"CA"},{"id":23,"code":"YRT","timezone":"America/Toronto","bounds":{"min_lat":43.6236,"max_lat":44.4173,"min_lon":-79.7927,"max_lon":-79.0795},"bgtfs_hash":"b06a1fc569b41c92428e0c5c8a967adc","bgtfs_feed_version":34942434,"bgtfs_uploaded_at":"2021-01-27T06:19:20Z","start_date":"2021-01-27","end_date":"2021-05-01","name":"York Region Transit","feed_network_name":"YRT","location":"Toronto","country_code":"CA"},{"id":24,"code":"GUELPH","timezone":"America/Toronto","bounds":{"min_lat":43.3961,"max_lat":43.6748,"min_lon":-80.4515,"max_lon":-80.0415},"bgtfs_hash":"d7bb0c44f85d7b6cb5c382287ebafc2c","bgtfs_feed_version":34589599,"bgtfs_uploaded_at":"2020-12-17T10:13:16Z","start_date":"2020-12-17","end_date":"2021-05-01","name":"Guelph Transit","feed_network_name":null,"location":"Toronto","country_code":"CA"},{"id":25,"code":"HSR","timezone":"America/Toronto","bounds":{"min_lat":43.0626,"max_lat":43.4448,"min_lon":-80.1637,"max_lon":-79.5596},"bgtfs_hash":"c3518acb587712aa0d2b1c9ad5047f93","bgtfs_feed_version":35028767,"bgtfs_uploaded_at":"2021-02-06T06:08:04Z","start_date":"2021-02-06","end_date":"2021-04-24","name":"Hamilton Street Railway","feed_network_name":"HSR","location":"Toronto","country_code":"CA"},{"id":26,"code":"GRT","timezone":"America/New_York","bounds":{"min_lat":43.2406,"max_lat":43.694,"min_lon":-80.8466,"max_lon":-80.1413},"bgtfs_hash":"90c136f7a690aa0e26d22c02e9d22612","bgtfs_feed_version":35046062,"bgtfs_uploaded_at":"2021-02-08T06:10:31Z","start_date":"2021-02-08","end_date":"2021-04-04","name":"Grand River Transit","feed_network_name":"GRT","location":"Waterloo","country_code":"CA"},{"id":27,"code":"OCT","timezone":"America/Montreal","bounds":{"min_lat":45.0351,"max_lat":45.6135,"min_lon":-76.1771,"max_lon":-75.2101},"bgtfs_hash":"e59c76ceab8f1c1cb61f6f58fde386d1","bgtfs_feed_version":35051799,"bgtfs_uploaded_at":"2021-02-08T22:06:56Z","start_date":"2021-02-08","end_date":"2021-04-17","name":"OC Transpo","feed_network_name":null,"location":"Ottawa","country_code":"CA"},{"id":29,"code":"HLF","timezone":"America/Halifax","bounds":{"min_lat":44.4723,"max_lat":44.9812,"min_lon":-63.9929,"max_lon":-63.1294},"bgtfs_hash":"1d51958a5021975105d006c7cf0505eb","bgtfs_feed_version":35028426,"bgtfs_uploaded_at":"2021-02-06T05:11:14Z","start_date":"2021-02-06","end_date":"2021-05-23","name":"Halifax Transit","feed_network_name":null,"location":"Halifax","country_code":"CA"},{"id":30,"code":"CAL","timezone":"America/Edmonton","bounds":{"min_lat":50.7228,"max_lat":51.3151,"min_lon":-114.4797,"max_lon":-113.6977},"bgtfs_hash":"4bd290cd737924d85335412c455a7ed2","bgtfs_feed_version":34951848,"bgtfs_uploaded_at":"2021-01-28T08:28:30Z","start_date":"2021-01-28","end_date":"2021-03-14","name":"Calgary Transit","feed_network_name":null,"location":"Calgary","country_code":"CA"},{"id":32,"code":"TSL","timezone":"America/Vancouver","bounds":{"min_lat":48.922,"max_lat":49.5584,"min_lon":-123.5566,"max_lon":-122.172},"bgtfs_hash":"42c0c73b319870c4312af594483b0222","bgtfs_feed_version":35030027,"bgtfs_uploaded_at":"2021-02-06T09:38:23Z","start_date":"2021-02-06","end_date":"2021-04-11","name":"TransLink (CA-BC)","feed_network_name":"TransLink","location":"Vancouver","country_code":"CA"},{"id":34,"code":"WPG","timezone":"America/Winnipeg","bounds":{"min_lat":49.6786,"max_lat":50.0549,"min_lon":-97.4574,"max_lon":-96.8279},"bgtfs_hash":"53b17c76a972bfc19963a135b3860442","bgtfs_feed_version":35074378,"bgtfs_uploaded_at":"2021-02-11T12:49:54Z","start_date":"2021-02-11","end_date":"2021-04-17","name":"Winnipeg Transit","feed_network_name":null,"location":"Winnipeg","country_code":"CA"},{"id":36,"code":"MTAS","timezone":"America/New_York","bounds":{"min_lat":40.4103,"max_lat":41.0049,"min_lon":-74.3867,"max_lon":-73.6207},"bgtfs_hash":"5ad83a25d1e73d43edb6ff529c9d265e","bgtfs_feed_version":35076828,"bgtfs_uploaded_at":"2021-02-11T19:38:17Z","start_date":"2021-02-11","end_date":"2021-06-26","name":"NYC Subway","feed_network_name":"MTA","location":"NYC","country_code":"US"},{"id":37,"code":"MTAMNT","timezone":"America/New_York","bounds":{"min_lat":40.5594,"max_lat":40.9674,"min_lon":-74.1528,"max_lon":-73.7326},"bgtfs_hash":"873f720b80965a46dfa147d67c52378d","bgtfs_feed_version":35046275,"bgtfs_uploaded_at":"2021-02-08T06:46:07Z","start_date":"2021-02-08","end_date":"2021-04-03","name":"Manhattan Buses","feed_network_name":"MTA Manhattan","location":"NYC","country_code":"US"},{"id":38,"code":"MTABK","timezone":"America/New_York","bounds":{"min_lat":40.4721,"max_lat":40.8687,"min_lon":-74.1733,"max_lon":-73.6458},"bgtfs_hash":"21d76aa85562f84dde051a76b332cbfa","bgtfs_feed_version":35046318,"bgtfs_uploaded_at":"2021-02-08T06:53:20Z","start_date":"2021-02-08","end_date":"2021-04-03","name":"Brooklyn Buses","feed_network_name":"MTA Brooklyn","location":"NYC","country_code":"US"},{"id":39,"code":"MTABX","timezone":"America/New_York","bounds":{"min_lat":40.6241,"max_lat":41.0135,"min_lon":-74.1438,"max_lon":-73.6532},"bgtfs_hash":"1256e8afae8fd5e4f0401ac144044cbf","bgtfs_feed_version":35046154,"bgtfs_uploaded_at":"2021-02-08T06:25:52Z","start_date":"2021-02-08","end_date":"2021-04-03","name":"Bronx Buses","feed_network_name":"MTA Bronx","location":"NYC","country_code":"US"},{"id":40,"code":"MTAQN","timezone":"America/New_York","bounds":{"min_lat":40.5515,"max_lat":40.941,"min_lon":-74.1258,"max_lon":-73.5717},"bgtfs_hash":"6471a6f3705cdeda5151e49d7a2a996d","bgtfs_feed_version":35046350,"bgtfs_uploaded_at":"2021-02-08T06:58:36Z","start_date":"2021-02-08","end_date":"2021-04-03","name":"Queens Buses","feed_network_name":"MTA Queens","location":"NYC","country_code":"US"},{"id":41,"code":"MTASI","timezone":"America/New_York","bounds":{"min_lat":40.4004,"max_lat":40.865,"min_lon":-74.3856,"max_lon":-73.8349},"bgtfs_hash":"5adf5be657a21d26caa0c5f17421fbb7","bgtfs_feed_version":35048505,"bgtfs_uploaded_at":"2021-02-08T12:57:39Z","start_date":"2021-02-08","end_date":"2021-04-03","name":"Staten Island Buses","feed_network_name":"MTA Staten Island","location":"NYC","country_code":"US"},{"id":42,"code":"MTABC","timezone":"America/New_York","bounds":{"min_lat":40.4639,"max_lat":41.0321,"min_lon":-74.1432,"max_lon":-73.5742},"bgtfs_hash":"2a9268f9b538c03ade7a6d8570c59dd5","bgtfs_feed_version":35046206,"bgtfs_uploaded_at":"2021-02-08T06:34:34Z","start_date":"2021-02-08","end_date":"2021-03-27","name":"NYC Bus Company","feed_network_name":null,"location":"NYC","country_code":"US"},{"id":43,"code":"MTALIRR","timezone":"America/New_York","bounds":{"min_lat":40.4882,"max_lat":41.2011,"min_lon":-74.1283,"max_lon":-71.8231},"bgtfs_hash":"8b91637c826f789cf1aaf898af99139e","bgtfs_feed_version":35074353,"bgtfs_uploaded_at":"2021-02-11T12:45:36Z","start_date":"2021-02-11","end_date":"2021-03-07","name":"Long Island Rail Road","feed_network_name":null,"location":"NYC","country_code":"US"},{"id":44,"code":"MTAMNRR","timezone":"America/New_York","bounds":{"min_lat":40.6508,"max_lat":41.9129,"min_lon":-74.1193,"max_lon":-72.7949},"bgtfs_hash":"0541225709b9755093aa9d6b364c56d3","bgtfs_feed_version":35071936,"bgtfs_uploaded_at":"2021-02-11T06:02:53Z","start_date":"2021-02-11","end_date":"2021-08-28","name":"Metro-North Railroad","feed_network_name":null,"location":"NYC","country_code":"US"},{"id":45,"code":"SKT","timezone":"America/Regina","bounds":{"min_lat":51.9476,"max_lat":52.3324,"min_lon":-106.975,"max_lon":-106.3373},"bgtfs_hash":"fd2180c94ee3350e329218a64b36066c","bgtfs_feed_version":34631723,"bgtfs_uploaded_at":"2020-12-22T07:13:57Z","start_date":"2020-12-22","end_date":"2021-03-27","name":"Saskatoon Transit","feed_network_name":"","location":"Saskatoon","country_code":"CA"},{"id":46,"code":"BART","timezone":"America/Los_Angeles","bounds":{"min_lat":37.2616,"max_lat":38.1249,"min_lon":-122.6002,"max_lon":-121.6465},"bgtfs_hash":"f543e1a39dd88a031b5a03cf19ab7076","bgtfs_feed_version":35033196,"bgtfs_uploaded_at":"2021-02-06T18:26:05Z","start_date":"2021-02-06","end_date":"2021-03-21","name":"Bay Area Rapid Transit","feed_network_name":"BART","location":"SF Bay Area","country_code":"US"},{"id":48,"code":"MUNI","timezone":"America/Los_Angeles","bounds":{"min_lat":37.6011,"max_lat":37.9284,"min_lon":-122.6427,"max_lon":-122.2329},"bgtfs_hash":"9c6e92d0396df66498d689448670722d","bgtfs_feed_version":35012712,"bgtfs_uploaded_at":"2021-02-04T09:32:14Z","start_date":"2021-02-04","end_date":"2021-03-05","name":"MUNI (SFMTA)","feed_network_name":"Muni","location":"SF Bay Area","country_code":"US"},{"id":49,"code":"CALT","timezone":"America/Los_Angeles","bounds":{"min_lat":36.8992,"max_lat":37.8817,"min_lon":-122.5457,"max_lon":-121.4398},"bgtfs_hash":"78f45074f7eb52a3bdff942396f05d09","bgtfs_feed_version":34641020,"bgtfs_uploaded_at":"2020-12-23T09:03:28Z","start_date":"2020-12-23","end_date":"2021-07-04","name":"Caltrain","feed_network_name":"","location":"SF Bay Area","country_code":"US"},{"id":50,"code":"ETS","timezone":"America/Edmonton","bounds":{"min_lat":53.1696,"max_lat":53.837,"min_lon":-114.1551,"max_lon":-112.9969},"bgtfs_hash":"41f63b5248955b703172ee73c3b22766","bgtfs_feed_version":34943438,"bgtfs_uploaded_at":"2021-01-27T09:07:03Z","start_date":"2021-01-27","end_date":"2021-04-24","name":"Edmonton Transit","feed_network_name":"ETS","location":"Edmonton","country_code":"CA"},{"id":51,"code":"ACT","timezone":"America/Los_Angeles","bounds":{"min_lat":37.3033,"max_lat":38.1237,"min_lon":-122.5567,"max_lon":-121.7584},"bgtfs_hash":"aadae58e93851dab819f0ebaa4af65bc","bgtfs_feed_version":34833076,"bgtfs_uploaded_at":"2021-01-14T14:33:01Z","start_date":"2021-01-14","end_date":"2021-03-27","name":"AC Transit","feed_network_name":"","location":"SF Bay Area","country_code":"US"},{"id":52,"code":"VTA","timezone":"America/Los_Angeles","bounds":{"min_lat":36.8743,"max_lat":37.5648,"min_lon":-122.306,"max_lon":-121.4231},"bgtfs_hash":"ceeb12d90ba70b8f25b643502d88711d","bgtfs_feed_version":34960763,"bgtfs_uploaded_at":"2021-01-29T09:14:03Z","start_date":"2021-01-29","end_date":"2021-06-13","name":"Santa Clara Valley Transportation Authority","feed_network_name":"VTA","location":"SF Bay Area","country_code":"US"},{"id":53,"code":"MLA","timezone":"America/Los_Angeles","bounds":{"min_lat":33.59589723052167,"max_lat":34.4367475591343,"min_lon":-118.99497882668464,"max_lon":-117.77901259762923},"bgtfs_hash":"a9514f4f2a36a734fd07d3f06e68767a","bgtfs_feed_version":35077392,"bgtfs_uploaded_at":"2021-02-11T21:12:45Z","start_date":"2021-02-11","end_date":"2021-06-26","name":"Metro Bus (LA)","feed_network_name":"Metro","location":"Los Angeles","country_code":"US"},{"id":54,"code":"CTA","timezone":"America/Chicago","bounds":{"min_lat":41.5456,"max_lat":42.1712,"min_lon":-88.0387,"max_lon":-87.3943},"bgtfs_hash":"0dd9588a1df2f20c9ef5aef5ed2b0c8d","bgtfs_feed_version":34777150,"bgtfs_uploaded_at":"2021-01-08T03:12:32Z","start_date":"2021-01-07","end_date":"2021-03-31","name":"Chicago Transit Authority","feed_network_name":"CTA","location":"Chicago","country_code":"US"},{"id":59,"code":"MTAHC","timezone":"America/Chicago","bounds":{"min_lat":29.414,"max_lat":30.4255,"min_lon":-95.9109,"max_lon":-94.8523},"bgtfs_hash":"6186fbf885aa4ad62c4a73e5ad8b2a6a","bgtfs_feed_version":34944987,"bgtfs_uploaded_at":"2021-01-27T13:24:55Z","start_date":"2021-01-27","end_date":"2021-06-19","name":"METRO","feed_network_name":null,"location":"Houston","country_code":"US"},{"id":60,"code":"SEPTAB","timezone":"America/New_York","bounds":{"min_lat":39.7113,"max_lat":40.4314,"min_lon":-75.8135,"max_lon":-74.6198},"bgtfs_hash":"cc03f99c76436eeea3ee584e9266fd26","bgtfs_feed_version":35072231,"bgtfs_uploaded_at":"2021-02-11T06:52:22Z","start_date":"2021-02-11","end_date":"2021-02-20","name":"SEPTA Buses","feed_network_name":"SEPTA","location":"Philadelphia","country_code":"US"},{"id":61,"code":"SEPTAR","timezone":"America/New_York","bounds":{"min_lat":39.574,"max_lat":40.4063,"min_lon":-75.8964,"max_lon":-74.6204},"bgtfs_hash":"688e9c9296d7081879537758fb21c358","bgtfs_feed_version":35071938,"bgtfs_uploaded_at":"2021-02-11T06:03:07Z","start_date":"2021-02-11","end_date":"2021-03-13","name":"SEPTA Rail","feed_network_name":"SEPTA","location":"Philadelphia","country_code":"US"},{"id":62,"code":"VIAMT","timezone":"America/Chicago","bounds":{"min_lat":29.1776,"max_lat":29.766,"min_lon":-98.8454,"max_lon":-98.1735},"bgtfs_hash":"0280290277197a38b78bbbc29563a008","bgtfs_feed_version":35055131,"bgtfs_uploaded_at":"2021-02-09T07:22:10Z","start_date":"2021-02-09","end_date":"2021-05-02","name":"VIA","feed_network_name":"","location":"San Antonio","country_code":"US"},{"id":63,"code":"SDMTS","timezone":"America/Los_Angeles","bounds":{"min_lat":32.4322,"max_lat":33.3666,"min_lon":-117.4122,"max_lon":-116.051},"bgtfs_hash":"fa932d117c1acd904f1900b6eb9ed5c5","bgtfs_feed_version":34979819,"bgtfs_uploaded_at":"2021-01-31T14:10:05Z","start_date":"2021-01-31","end_date":"2021-06-05","name":"San Diego Metropolitan Transit System","feed_network_name":"MTS","location":"San Diego","country_code":"US"},{"id":64,"code":"NCTD","timezone":"America/Los_Angeles","bounds":{"min_lat":32.6054,"max_lat":33.4995,"min_lon":-117.6465,"max_lon":-116.7359},"bgtfs_hash":"4dc4dab446d90c61bdb4676cf32ddf13","bgtfs_feed_version":34399107,"bgtfs_uploaded_at":"2020-11-25T09:04:39Z","start_date":"2020-11-25","end_date":"2021-04-03","name":"North County Transit District (NCTD)","feed_network_name":"NCTD","location":"San Diego","country_code":"US"},{"id":65,"code":"PACE","timezone":"America/Chicago","bounds":{"min_lat":41.303,"max_lat":42.5564,"min_lon":-88.7547,"max_lon":-87.3906},"bgtfs_hash":"941f7ff60d741d9e9bb7505579ce0579","bgtfs_feed_version":34998825,"bgtfs_uploaded_at":"2021-02-02T18:58:06Z","start_date":"2021-02-02","end_date":"2021-03-27","name":"Pace","feed_network_name":null,"location":"Chicago","country_code":"US"},{"id":66,"code":"DART","timezone":"America/Chicago","bounds":{"min_lat":32.4471,"max_lat":33.194,"min_lon":-97.4628,"max_lon":-96.4295},"bgtfs_hash":"1475a89eef17c2b2c6a442cdde0c24d1","bgtfs_feed_version":35075228,"bgtfs_uploaded_at":"2021-02-11T15:11:37Z","start_date":"2021-02-11","end_date":"2021-05-16","name":"Dallas Area Rapid Transit","feed_network_name":"DART","location":"Dallas","country_code":"US"},{"id":67,"code":"MBTA","timezone":"America/New_York","bounds":{"min_lat":41.483,"max_lat":42.8965,"min_lon":-71.9831,"max_lon":-70.499},"bgtfs_hash":"6937c5d1332bf1ce728ed7136e1d2894","bgtfs_feed_version":35068659,"bgtfs_uploaded_at":"2021-02-10T20:57:11Z","start_date":"2021-02-10","end_date":"2021-03-13","name":"Massachusetts Bay Transportation Authority","feed_network_name":"MBTA","location":"Boston","country_code":"US"},{"id":69,"code":"METRA","timezone":"America/Chicago","bounds":{"min_lat":41.3193,"max_lat":42.6812,"min_lon":-88.7504,"max_lon":-87.4137},"bgtfs_hash":"febf3c64abdda4a71bd3456b4b0fc503","bgtfs_feed_version":35029096,"bgtfs_uploaded_at":"2021-02-06T07:02:50Z","start_date":"2021-02-06","end_date":"2021-12-31","name":"Metra","feed_network_name":null,"location":"Chicago","country_code":"US"},{"id":70,"code":"WMATA","timezone":"America/New_York","bounds":{"min_lat":38.5891,"max_lat":39.2601,"min_lon":-77.5834,"max_lon":-76.5882},"bgtfs_hash":"11805550c820d5820b1a1eb65c71be34","bgtfs_feed_version":35058657,"bgtfs_uploaded_at":"2021-02-09T17:10:04Z","start_date":"2021-02-09","end_date":"2021-03-13","name":"Metrobus","feed_network_name":"","location":"Washington D.C.","country_code":"US"},{"id":71,"code":"DCC","timezone":"America/New_York","bounds":{"min_lat":38.7438,"max_lat":39.0323,"min_lon":-77.2059,"max_lon":-76.851},"bgtfs_hash":"0d25a0ee8e67b7a45404fdd306ceadad","bgtfs_feed_version":35050626,"bgtfs_uploaded_at":"2021-02-08T18:51:10Z","start_date":"2021-02-08","end_date":"2021-03-08","name":"DC Circulator","feed_network_name":"","location":"Washington D.C.","country_code":"US"},{"id":72,"code":"MDT","timezone":"America/New_York","bounds":{"min_lat":24.5938,"max_lat":26.1075,"min_lon":-81.21,"max_lon":-79.9886},"bgtfs_hash":"0900fa90da93a3c5799de8d424429ab8","bgtfs_feed_version":35051043,"bgtfs_uploaded_at":"2021-02-08T20:00:55Z","start_date":"2021-02-08","end_date":"2022-02-08","name":"Miami-Dade Transit","feed_network_name":null,"location":"Miami","country_code":"US"},{"id":73,"code":"CAPM","timezone":"America/Chicago","bounds":{"min_lat":30.031,"max_lat":30.7023,"min_lon":-98.1229,"max_lon":-97.2369},"bgtfs_hash":"1e8f3b0602b1698bbe3ef39a89518020","bgtfs_feed_version":35020897,"bgtfs_uploaded_at":"2021-02-05T08:16:24Z","start_date":"2021-02-05","end_date":"2021-06-05","name":"Capital Metro","feed_network_name":"","location":"Austin","country_code":"US"},{"id":74,"code":"TRIMET","timezone":"America/Los_Angeles","bounds":{"min_lat":45.1907,"max_lat":45.7318,"min_lon":-123.2468,"max_lon":-122.1986},"bgtfs_hash":"14f27e25d786245a174cadcde59c49e4","bgtfs_feed_version":34996815,"bgtfs_uploaded_at":"2021-02-02T13:22:54Z","start_date":"2021-02-02","end_date":"2021-06-05","name":"TriMet","feed_network_name":"","location":"Portland","country_code":"US"},{"id":75,"code":"KCM","timezone":"America/Los_Angeles","bounds":{"min_lat":47.099,"max_lat":47.9579,"min_lon":-122.6412,"max_lon":-121.6511},"bgtfs_hash":"d5920494595c63868bd6e4229e7d7687","bgtfs_feed_version":35012658,"bgtfs_uploaded_at":"2021-02-04T09:23:27Z","start_date":"2021-02-04","end_date":"2021-03-19","name":"King County Metro","feed_network_name":"King County Metro","location":"Seattle","country_code":"US"},{"id":76,"code":"COS","timezone":"America/Los_Angeles","bounds":{"min_lat":47.5082,"max_lat":47.7183,"min_lon":-122.472,"max_lon":-122.1794},"bgtfs_hash":"faa161f3b2579091f33a2db5e4fe23c6","bgtfs_feed_version":35012550,"bgtfs_uploaded_at":"2021-02-04T09:05:14Z","start_date":"2021-02-04","end_date":"2021-06-11","name":"City of Seattle","feed_network_name":"Seattle Streetcar","location":"Seattle","country_code":"US"},{"id":77,"code":"KMD","timezone":"America/Los_Angeles","bounds":{"min_lat":47.4215,"max_lat":47.6899,"min_lon":-122.5994,"max_lon":-122.2079},"bgtfs_hash":"0f7f9b1a3ede0ffdfed959640156a4b7","bgtfs_feed_version":35012536,"bgtfs_uploaded_at":"2021-02-04T09:02:50Z","start_date":"2021-02-04","end_date":"2021-03-19","name":"King County Marine Division","feed_network_name":"","location":"Seattle","country_code":"US"},{"id":78,"code":"SDT","timezone":"America/Los_Angeles","bounds":{"min_lat":47.0621,"max_lat":48.065,"min_lon":-122.6334,"max_lon":-122.0626},"bgtfs_hash":"c8a0b441c4c48575b72292f2782ceedd","bgtfs_feed_version":35012529,"bgtfs_uploaded_at":"2021-02-04T09:01:41Z","start_date":"2021-02-04","end_date":"2021-03-19","name":"Sound Transit","feed_network_name":"","location":"Seattle","country_code":"US"},{"id":79,"code":"CCCTA","timezone":"America/Los_Angeles","bounds":{"min_lat":37.5529,"max_lat":38.1254,"min_lon":-122.3149,"max_lon":-121.6472},"bgtfs_hash":"b9bcb3bb5771a3886144b5b62e6f37b6","bgtfs_feed_version":34947798,"bgtfs_uploaded_at":"2021-01-27T21:13:14Z","start_date":"2021-01-27","end_date":"2021-03-20","name":"County Connection","feed_network_name":"","location":"SF Bay Area","country_code":"US"},{"id":80,"code":"MARTA","timezone":"America/New_York","bounds":{"min_lat":33.3924,"max_lat":34.1823,"min_lon":-84.8036,"max_lon":-83.9497},"bgtfs_hash":"02df9efa2fd44caa91c4d78a759d513b","bgtfs_feed_version":34485145,"bgtfs_uploaded_at":"2020-12-05T08:04:25Z","start_date":"2020-12-05","end_date":"2021-04-23","name":"Metropolitan Atlanta Rapid Transit Authority","feed_network_name":"MARTA","location":"Atlanta","country_code":"US"},{"id":81,"code":"BRPT","timezone":"America/New_York","bounds":{"min_lat":43.4957,"max_lat":43.9161,"min_lon":-79.9926,"max_lon":-79.393},"bgtfs_hash":"2b0c92bc6d79ab3234c21f605753907a","bgtfs_feed_version":35046181,"bgtfs_uploaded_at":"2021-02-08T06:30:24Z","start_date":"2021-02-08","end_date":"2021-04-25","name":"Brampton Transit","feed_network_name":null,"location":"Toronto","country_code":"CA"},{"id":82,"code":"BCTK","timezone":"America/Vancouver","bounds":{"min_lat":49.6648,"max_lat":50.1581,"min_lon":-119.9203,"max_lon":-119.2127},"bgtfs_hash":"1f07dbb16ab42dbf66a3dd78e6b2f335","bgtfs_feed_version":34967550,"bgtfs_uploaded_at":"2021-01-30T04:05:13Z","start_date":"2021-01-29","end_date":"2021-04-29","name":"BC Transit (Kelowna)","feed_network_name":"BC Transit Kelowna","location":"Kelowna","country_code":"CA"},{"id":83,"code":"BCTS","timezone":"America/Vancouver","bounds":{"min_lat":49.6106,"max_lat":49.8577,"min_lon":-123.2882,"max_lon":-122.9646},"bgtfs_hash":"841e7db087594b594463b8aac90fd6e7","bgtfs_feed_version":34950270,"bgtfs_uploaded_at":"2021-01-28T04:05:15Z","start_date":"2021-01-27","end_date":"2021-05-31","name":"BC Transit (Squamish)","feed_network_name":"BC Transit Squamish","location":"Squamish","country_code":"CA"},{"id":84,"code":"BCTW","timezone":"America/Vancouver","bounds":{"min_lat":49.9426,"max_lat":50.2903,"min_lon":-123.2527,"max_lon":-122.7175},"bgtfs_hash":"37522c0195e4fc3e78223b82a43036a7","bgtfs_feed_version":35048177,"bgtfs_uploaded_at":"2021-02-08T12:02:59Z","start_date":"2021-02-08","end_date":"2021-05-09","name":"BC Transit (Whistler)","feed_network_name":"BC Transit Whistler","location":"Whistler","country_code":"CA"},{"id":85,"code":"BCTV","timezone":"America/Vancouver","bounds":{"min_lat":48.2508,"max_lat":48.783,"min_lon":-123.9298,"max_lon":-123.1432},"bgtfs_hash":"523be5ab8d746a8e1c0460e708c60c91","bgtfs_feed_version":35048253,"bgtfs_uploaded_at":"2021-02-08T12:15:50Z","start_date":"2021-02-08","end_date":"2021-05-09","name":"BC Transit (Victoria)","feed_network_name":"BC Transit Victoria","location":"Victoria","country_code":"CA"},{"id":86,"code":"OCTA","timezone":"America/Los_Angeles","bounds":{"min_lat":33.2925,"max_lat":34.0499,"min_lon":-118.2509,"max_lon":-117.4431},"bgtfs_hash":"fc58c7dd33417b62c459c3128a81dcb4","bgtfs_feed_version":35038522,"bgtfs_uploaded_at":"2021-02-07T09:13:55Z","start_date":"2021-02-07","end_date":"2021-03-07","name":"Orange County Transportation Authority (OCTA)","feed_network_name":"OCTA","location":"Los Angeles","country_code":"US"},{"id":87,"code":"MELK","timezone":"America/Los_Angeles","bounds":{"min_lat":33.0814,"max_lat":34.8065,"min_lon":-119.3396,"max_lon":-117.071},"bgtfs_hash":"710ecbc59ff843954826891adb583de4","bgtfs_feed_version":34779310,"bgtfs_uploaded_at":"2021-01-08T09:11:45Z","start_date":"2021-01-08","end_date":"2022-01-08","name":"Metrolink","feed_network_name":"","location":"Los Angeles","country_code":"US"},{"id":88,"code":"MTGM","timezone":"America/New_York","bounds":{"min_lat":38.8326,"max_lat":39.3921,"min_lon":-77.5511,"max_lon":-76.7966},"bgtfs_hash":"f292d394f7d571d85699af9ed56b4e24","bgtfs_feed_version":35054788,"bgtfs_uploaded_at":"2021-02-09T06:24:55Z","start_date":"2021-02-09","end_date":"2021-05-08","name":"Montgomery County Transit","feed_network_name":"Ride On","location":"Washington D.C.","country_code":"US"},{"id":89,"code":"ART","timezone":"America/New_York","bounds":{"min_lat":38.7354,"max_lat":39.0199,"min_lon":-77.2952,"max_lon":-76.9165},"bgtfs_hash":"f85f61c09405cad188e24104f22afa56","bgtfs_feed_version":35048442,"bgtfs_uploaded_at":"2021-02-08T12:47:08Z","start_date":"2021-02-08","end_date":"2022-02-08","name":"Arlington Transit","feed_network_name":null,"location":"Washington D.C.","country_code":"US"},{"id":90,"code":"GGT","timezone":"America/Vancouver","bounds":{"min_lat":37.6714,"max_lat":38.5765,"min_lon":-122.8751,"max_lon":-122.1333},"bgtfs_hash":"d9b55f0cf459bba0465a9dd2f0dd64ca","bgtfs_feed_version":35039218,"bgtfs_uploaded_at":"2021-02-07T11:09:52Z","start_date":"2021-02-07","end_date":"2021-03-13","name":"Golden Gate Transit","feed_network_name":"","location":"SF Bay Area","country_code":"US"},{"id":98,"code":"NJTB","timezone":"America/New_York","bounds":{"min_lat":38.8324,"max_lat":41.3514,"min_lon":-75.6523,"max_lon":-73.8046},"bgtfs_hash":"9680a0379c4bc5f0136bb6643b81fe50","bgtfs_feed_version":35048637,"bgtfs_uploaded_at":"2021-02-08T13:20:20Z","start_date":"2021-02-08","end_date":"2021-07-30","name":"NJ Transit Buses","feed_network_name":"NJ Transit","location":"New Jersey","country_code":"US"},{"id":99,"code":"NJTR","timezone":"America/New_York","bounds":{"min_lat":39.259,"max_lat":41.5688,"min_lon":-75.3169,"max_lon":-73.8536},"bgtfs_hash":"e28694328a0a7e2f421154a56964f40b","bgtfs_feed_version":35046166,"bgtfs_uploaded_at":"2021-02-08T06:27:48Z","start_date":"2021-02-08","end_date":"2021-06-19","name":"NJ Transit Rail","feed_network_name":"NJ Transit","location":"New Jersey","country_code":"US"},{"id":100,"code":"PATH","timezone":"America/New_York","bounds":{"min_lat":40.6123,"max_lat":40.8739,"min_lon":-74.2917,"max_lon":-73.7311},"bgtfs_hash":"26c6872fe9a9515f22df5d1480297e21","bgtfs_feed_version":35074337,"bgtfs_uploaded_at":"2021-02-11T12:42:59Z","start_date":"2021-02-11","end_date":"2021-11-11","name":"Port Authority Trans-Hudson","feed_network_name":"Port Authority","location":"NYC","country_code":"US"},{"id":101,"code":"FFC","timezone":"America/New_York","bounds":{"min_lat":38.5897,"max_lat":39.1162,"min_lon":-77.599,"max_lon":-76.8913},"bgtfs_hash":"d79b9067c5b007fbb8282149d5357ed8","bgtfs_feed_version":35046268,"bgtfs_uploaded_at":"2021-02-08T06:44:56Z","start_date":"2021-02-08","end_date":"2021-12-31","name":"Fairfax Connector","feed_network_name":"","location":"Washington D.C.","country_code":"US"},{"id":102,"code":"BCTKM","timezone":"America/Vancouver","bounds":{"min_lat":50.5002,"max_lat":50.9909,"min_lon":-120.6349,"max_lon":-119.8689},"bgtfs_hash":"b003c596318b472c3ad2ffb1d67e4700","bgtfs_feed_version":35068222,"bgtfs_uploaded_at":"2021-02-10T19:43:49Z","start_date":"2021-02-10","end_date":"2021-05-09","name":"BC Transit (Kamloops)","feed_network_name":"BC Transit Kamloops","location":"Kamloops","country_code":"CA"},{"id":103,"code":"PAAC","timezone":"America/New_York","bounds":{"min_lat":40.171,"max_lat":40.7697,"min_lon":-80.3936,"max_lon":-79.5707},"bgtfs_hash":"8bf9a18d2279f57329e2046a042428ac","bgtfs_feed_version":35046304,"bgtfs_uploaded_at":"2021-02-08T06:51:03Z","start_date":"2021-02-08","end_date":"2021-03-20","name":"Port Authority of Allegheny County","feed_network_name":"Port Authority","location":"Pittsburgh","country_code":"US"},{"id":104,"code":"UTA","timezone":"America/Denver","bounds":{"min_lat":39.8736,"max_lat":41.6254,"min_lon":-112.608,"max_lon":-111.4127},"bgtfs_hash":"0ce79a750d5aa072f50850c066f5ca64","bgtfs_feed_version":35000077,"bgtfs_uploaded_at":"2021-02-02T22:26:26Z","start_date":"2021-02-01","end_date":"2021-04-17","name":"UTA","feed_network_name":"","location":"Salt Lake City","country_code":"US"},{"id":105,"code":"RTA","timezone":"America/Los_Angeles","bounds":{"min_lat":33.3399,"max_lat":34.2116,"min_lon":-118.0488,"max_lon":-116.7419},"bgtfs_hash":"0dcbef1cb70952a799a22416027c707b","bgtfs_feed_version":34952108,"bgtfs_uploaded_at":"2021-01-28T09:11:35Z","start_date":"2021-01-28","end_date":"2021-05-08","name":"Riverside Transit Agency","feed_network_name":"","location":"Los Angeles","country_code":"US"},{"id":106,"code":"RTD","timezone":"America/Denver","bounds":{"min_lat":39.4169,"max_lat":40.3068,"min_lon":-105.717,"max_lon":-104.5386},"bgtfs_hash":"af8f0e14c5dbca5a2172451d10f6ab1b","bgtfs_feed_version":35076026,"bgtfs_uploaded_at":"2021-02-11T17:24:34Z","start_date":"2021-02-11","end_date":"2021-06-12","name":"RTD","feed_network_name":"","location":"Denver","country_code":"US"},{"id":107,"code":"THEBUS","timezone":"Pacific/Honolulu","bounds":{"min_lat":21.1326,"max_lat":21.8276,"min_lon":-158.3629,"max_lon":-157.5302},"bgtfs_hash":"3f2a97d3842fbd01da98842d55ac3d13","bgtfs_feed_version":35058299,"bgtfs_uploaded_at":"2021-02-09T16:10:11Z","start_date":"2021-02-09","end_date":"2021-05-29","name":"TheBus","feed_network_name":null,"location":"Oahu","country_code":"US"},{"id":108,"code":"MDTA","timezone":"America/New_York","bounds":{"min_lat":38.8754,"max_lat":39.6044,"min_lon":-77.022,"max_lon":-76.2479},"bgtfs_hash":"4bbc35bc228f27d6b41e812ea51109dd","bgtfs_feed_version":35046315,"bgtfs_uploaded_at":"2021-02-08T06:52:45Z","start_date":"2021-02-08","end_date":"2021-03-08","name":"Maryland Transit Administration (MDOT)","feed_network_name":"MTA","location":"Baltimore","country_code":"US"},{"id":109,"code":"SLM","timezone":"America/Chicago","bounds":{"min_lat":38.3648,"max_lat":38.9291,"min_lon":-90.8143,"max_lon":-89.748},"bgtfs_hash":"30265d9a6d66b43658929f3b4c3e735a","bgtfs_feed_version":34584581,"bgtfs_uploaded_at":"2020-12-16T20:17:06Z","start_date":"2020-12-15","end_date":"2021-03-14","name":"Metro St. Louis","feed_network_name":"Metro","location":"St. Louis","country_code":"US"},{"id":110,"code":"TBT","timezone":"America/Thunder_Bay","bounds":{"min_lat":48.2567,"max_lat":48.5677,"min_lon":-89.5189,"max_lon":-89.0475},"bgtfs_hash":"f1d06aaa26dd2a88f566b10a74e08692","bgtfs_feed_version":35046238,"bgtfs_uploaded_at":"2021-02-08T06:39:45Z","start_date":"2021-02-08","end_date":"2021-02-20","name":"Thunder Bay Transit","feed_network_name":null,"location":"Thunder Bay","country_code":"CA"},{"id":111,"code":"PATCO","timezone":"America/New_York","bounds":{"min_lat":39.7304,"max_lat":40.0544,"min_lon":-75.301,"max_lon":-74.869},"bgtfs_hash":"bbc43e795e6ae07b27221e4d21e9969b","bgtfs_feed_version":35046239,"bgtfs_uploaded_at":"2021-02-08T06:39:58Z","start_date":"2021-02-08","end_date":"2021-12-06","name":"Port Authority Transit Corporation","feed_network_name":"PATCO","location":"Philadelphia","country_code":"US"},{"id":113,"code":"RATP","timezone":"Europe/Paris","bounds":{"min_lat":48.5808,"max_lat":49.1463,"min_lon":1.9675,"max_lon":2.7942},"bgtfs_hash":"842abe0b0a18c02855841de404be43a6","bgtfs_feed_version":35024588,"bgtfs_uploaded_at":"2021-02-05T18:33:03Z","start_date":"2021-02-05","end_date":"2021-02-28","name":"RATP Bus","feed_network_name":"RATP","location":"Paris","country_code":"FR"},{"id":117,"code":"RATPS","timezone":"Europe/Paris","bounds":{"min_lat":48.6832,"max_lat":49.032,"min_lon":2.0946,"max_lon":2.5981},"bgtfs_hash":"d1b8d60cad745f50073d0a9cbb4d304e","bgtfs_feed_version":34962438,"bgtfs_uploaded_at":"2021-01-29T13:53:12Z","start_date":"2021-01-29","end_date":"2021-07-18","name":"RATP Metro","feed_network_name":"RATP","location":"Paris","country_code":"FR"},{"id":118,"code":"FCF","timezone":"Canada/Pacific","bounds":{"min_lat":49.1824,"max_lat":49.3645,"min_lon":-123.2799,"max_lon":-122.974},"bgtfs_hash":"6166e097e95687043135c66abf1bfbb4","bgtfs_feed_version":35017048,"bgtfs_uploaded_at":"2021-02-04T21:34:53Z","start_date":"2021-02-04","end_date":"2022-01-01","name":"False Creek Ferries","feed_network_name":"","location":"Vancouver","country_code":"CA"},{"id":119,"code":"MXMB","timezone":"America/Mexico_City","bounds":{"min_lat":19.1521,"max_lat":19.6552,"min_lon":-99.3335,"max_lon":-98.9139},"bgtfs_hash":"261150d67b4a904f26cab71f9b102347","bgtfs_feed_version":35072388,"bgtfs_uploaded_at":"2021-02-11T07:18:08Z","start_date":"2021-02-11","end_date":"2021-03-11","name":"Metrobús","feed_network_name":null,"location":"Mexico City","country_code":"MX"},{"id":120,"code":"MXMETRO","timezone":"America/Mexico_City","bounds":{"min_lat":19.1598,"max_lat":19.6613,"min_lon":-99.3484,"max_lon":-98.8262},"bgtfs_hash":"c6306aa8f00bfb1a75d2365364b30e87","bgtfs_feed_version":34571319,"bgtfs_uploaded_at":"2020-12-15T07:26:34Z","start_date":"2020-12-15","end_date":"2021-12-15","name":"Sistema de Transporte Colectivo","feed_network_name":"Metro","location":"Mexico City","country_code":"MX"},{"id":130,"code":"RTP","timezone":"America/Mexico_City","bounds":{"min_lat":19.0059,"max_lat":19.7035,"min_lon":-99.47,"max_lon":-98.8173},"bgtfs_hash":"5168b9e9a1902b3d45dfd74d76d01199","bgtfs_feed_version":34571414,"bgtfs_uploaded_at":"2020-12-15T07:42:33Z","start_date":"2020-12-15","end_date":"2021-12-15","name":"Red de Transporte de Pasajeros","feed_network_name":"RTP","location":"Mexico City","country_code":"MX"},{"id":131,"code":"STE","timezone":"America/Mexico_City","bounds":{"min_lat":19.1321,"max_lat":19.6313,"min_lon":-99.3425,"max_lon":-98.9323},"bgtfs_hash":"e551f37d6ea01c6fceb8edeb6333074b","bgtfs_feed_version":34571431,"bgtfs_uploaded_at":"2020-12-15T07:45:27Z","start_date":"2020-12-15","end_date":"2021-12-15","name":"Servicio de Transportes Eléctricos","feed_network_name":"STE","location":"Mexico City","country_code":"MX"},{"id":132,"code":"SUB","timezone":"America/Mexico_City","bounds":{"min_lat":19.3233,"max_lat":19.7927,"min_lon":-99.3295,"max_lon":-99.0187},"bgtfs_hash":"3f138095c2ea515df7649b45beb81572","bgtfs_feed_version":34571375,"bgtfs_uploaded_at":"2020-12-15T07:35:54Z","start_date":"2020-12-15","end_date":"2021-12-15","name":"Ferrocarriles Suburbanos","feed_network_name":null,"location":"Mexico City","country_code":"MX"},{"id":133,"code":"SIF","timezone":"America/New_York","bounds":{"min_lat":40.5422,"max_lat":40.7985,"min_lon":-74.2065,"max_lon":-73.883},"bgtfs_hash":"4a816414ac2a03565a182d5b39b42d36","bgtfs_feed_version":35046281,"bgtfs_uploaded_at":"2021-02-08T06:46:57Z","start_date":"2021-02-08","end_date":"2022-02-08","name":"Staten Island Ferry","feed_network_name":null,"location":"NYC","country_code":"US"},{"id":134,"code":"PIRC","timezone":"America/Los_Angeles","bounds":{"min_lat":46.9841,"max_lat":47.7531,"min_lon":-122.7747,"max_lon":-121.9988},"bgtfs_hash":"f4e7dedfbc49c2f80c52f7423b35121d","bgtfs_feed_version":35025426,"bgtfs_uploaded_at":"2021-02-05T20:51:14Z","start_date":"2021-01-13","end_date":"2021-03-28","name":"Pierce Transit","feed_network_name":null,"location":"Seattle","country_code":"US"},{"id":135,"code":"HRT","timezone":"America/New_York","bounds":{"min_lat":36.6027,"max_lat":37.3932,"min_lon":-76.8429,"max_lon":-75.8377},"bgtfs_hash":"0248292d241f0b5167d00ffa5ac415cb","bgtfs_feed_version":35046287,"bgtfs_uploaded_at":"2021-02-08T06:48:06Z","start_date":"2021-02-08","end_date":"2021-05-15","name":"Hampton Roads Transit","feed_network_name":"HRT","location":"Hampton","country_code":"US"},{"id":136,"code":"NICE","timezone":"America/New_York","bounds":{"min_lat":40.4843,"max_lat":40.9649,"min_lon":-73.9633,"max_lon":-73.2752},"bgtfs_hash":"f92d2cb74e0fdf521fac80ed5924a833","bgtfs_feed_version":35046330,"bgtfs_uploaded_at":"2021-02-08T06:55:07Z","start_date":"2021-02-08","end_date":"2021-04-03","name":"Nassau Inter-County Express (NICE)","feed_network_name":"NICE","location":"NYC","country_code":"US"},{"id":137,"code":"BRBA","timezone":"America/Los_Angeles","bounds":{"min_lat":34.0299,"max_lat":34.3049,"min_lon":-118.5091,"max_lon":-118.1772},"bgtfs_hash":"f3082ad183ccedb128ab5da436f54ac3","bgtfs_feed_version":34744701,"bgtfs_uploaded_at":"2021-01-04T09:03:33Z","start_date":"2021-01-04","end_date":"2022-01-04","name":"Burbank Bus","feed_network_name":"","location":"Los Angeles","country_code":"US"},{"id":138,"code":"SAMT","timezone":"America/Los_Angeles","bounds":{"min_lat":37.1445,"max_lat":37.8995,"min_lon":-122.6517,"max_lon":-121.9961},"bgtfs_hash":"b6fae6ac188e0da096f27c4aaa448ec5","bgtfs_feed_version":34857047,"bgtfs_uploaded_at":"2021-01-17T09:08:03Z","start_date":"2021-01-17","end_date":"2021-06-19","name":"SamTrans","feed_network_name":null,"location":"SF Bay Area","country_code":"US"},{"id":139,"code":"SRTD","timezone":"America/Los_Angeles","bounds":{"min_lat":38.275,"max_lat":38.8247,"min_lon":-121.8946,"max_lon":-120.9586},"bgtfs_hash":"3830c59bb392306b9122fee67824ce79","bgtfs_feed_version":34597855,"bgtfs_uploaded_at":"2020-12-18T09:09:22Z","start_date":"2020-12-18","end_date":"2021-04-03","name":"Sacramento Regional Transit","feed_network_name":"","location":"Sacramento","country_code":"US"},{"id":140,"code":"MVTA","timezone":"America/Chicago","bounds":{"min_lat":44.6182,"max_lat":45.0744,"min_lon":-93.6847,"max_lon":-92.9471},"bgtfs_hash":"3d0cd2a9b9105e5a9ce15048e28f708a","bgtfs_feed_version":35072366,"bgtfs_uploaded_at":"2021-02-11T07:14:26Z","start_date":"2021-02-11","end_date":"2021-05-14","name":"MVTA","feed_network_name":null,"location":"Minneapolis-Saint Paul","country_code":"US"},{"id":141,"code":"MCTS","timezone":"America/Chicago","bounds":{"min_lat":42.7749,"max_lat":43.482,"min_lon":-88.2479,"max_lon":-87.7154},"bgtfs_hash":"ae3d683385fc2d6f1063beddeb5da90c","bgtfs_feed_version":34960218,"bgtfs_uploaded_at":"2021-01-29T07:43:16Z","start_date":"2021-01-29","end_date":"2021-03-06","name":"Milwaukee County Transit System","feed_network_name":"MCTS","location":"Milwaukee County","country_code":"US"},{"id":142,"code":"KCATA","timezone":"America/Chicago","bounds":{"min_lat":38.7767,"max_lat":39.4069,"min_lon":-94.9663,"max_lon":-94.2074},"bgtfs_hash":"84196713247f6fc27ddc31cd29c2b602","bgtfs_feed_version":34908173,"bgtfs_uploaded_at":"2021-01-23T07:08:59Z","start_date":"2021-01-23","end_date":"2021-04-03","name":"Kansas City Area Transportation Authority","feed_network_name":"KCATA","location":"Kansas City","country_code":"US"},{"id":143,"code":"DDOT","timezone":"America/Detroit","bounds":{"min_lat":42.1576,"max_lat":42.5699,"min_lon":-83.465,"max_lon":-82.7775},"bgtfs_hash":"fd72eddfea60c6285d82742082258496","bgtfs_feed_version":35059612,"bgtfs_uploaded_at":"2021-02-09T19:48:55Z","start_date":"2021-02-09","end_date":"2021-04-30","name":"DDOT","feed_network_name":null,"location":"Detroit","country_code":"US"},{"id":151,"code":"TRT","timezone":"America/Los_Angeles","bounds":{"min_lat":33.6601,"max_lat":34.1707,"min_lon":-118.5305,"max_lon":-118.0588},"bgtfs_hash":"942306a409e551471f65cb02f6b7d865","bgtfs_feed_version":34868436,"bgtfs_uploaded_at":"2021-01-18T16:46:06Z","start_date":"2021-01-18","end_date":"2021-04-10","name":"Torrance Transit","feed_network_name":"","location":"Los Angeles","country_code":"US"},{"id":152,"code":"CTS","timezone":"Europe/Paris","bounds":{"min_lat":48.3781,"max_lat":48.7702,"min_lon":7.4533,"max_lon":7.9623},"bgtfs_hash":"f419768e82f7fa88ea68b34ba6914982","bgtfs_feed_version":35061325,"bgtfs_uploaded_at":"2021-02-10T00:34:27Z","start_date":"2021-02-10","end_date":"2021-04-10","name":"Compagnie des Transports Strasbourgeois","feed_network_name":"CTS","location":"Strasbourg","country_code":"FR"},{"id":153,"code":"TISSEO","timezone":"Europe/Paris","bounds":{"min_lat":43.2947,"max_lat":43.8429,"min_lon":1.0281,"max_lon":1.8245},"bgtfs_hash":"b890960571d05721bdea0ca71ac57858","bgtfs_feed_version":35052650,"bgtfs_uploaded_at":"2021-02-09T00:28:33Z","start_date":"2021-02-09","end_date":"2021-02-26","name":"Tisséo","feed_network_name":null,"location":"Toulouse","country_code":"FR"},{"id":154,"code":"SEMITAN","timezone":"Europe/Paris","bounds":{"min_lat":47.0319,"max_lat":47.4302,"min_lon":-1.9505,"max_lon":-1.2161},"bgtfs_hash":"fdf467c4b7720dad54cd15e43e75214e","bgtfs_feed_version":34966499,"bgtfs_uploaded_at":"2021-01-30T01:10:13Z","start_date":"2021-01-30","end_date":"2021-06-06","name":"Semitan (TAN)","feed_network_name":"TAN","location":"Nantes","country_code":"FR"},{"id":155,"code":"TBCT","timezone":"Europe/Paris","bounds":{"min_lat":44.6786,"max_lat":45.0057,"min_lon":-0.7984,"max_lon":-0.3789},"bgtfs_hash":"11f0e78497e785da7765a35c425bc431","bgtfs_feed_version":35069808,"bgtfs_uploaded_at":"2021-02-11T00:08:06Z","start_date":"2021-02-11","end_date":"2021-05-10","name":"TBM (tram)","feed_network_name":"TBM","location":"Bordeaux","country_code":"FR"},{"id":156,"code":"TBCB","timezone":"Europe/Paris","bounds":{"min_lat":44.6599,"max_lat":45.1195,"min_lon":-0.9301,"max_lon":-0.3328},"bgtfs_hash":"0a2af459cdefd3b628b3438023830684","bgtfs_feed_version":34949001,"bgtfs_uploaded_at":"2021-01-28T00:33:47Z","start_date":"2021-01-28","end_date":"2021-04-26","name":"TBM (bus)","feed_network_name":"TBM","location":"Bordeaux","country_code":"FR"},{"id":157,"code":"STAR","timezone":"Europe/Paris","bounds":{"min_lat":47.8528,"max_lat":48.3879,"min_lon":-2.0812,"max_lon":-1.3447},"bgtfs_hash":"00fc54074be0291789adc028caf773d5","bgtfs_feed_version":35052841,"bgtfs_uploaded_at":"2021-02-09T01:00:33Z","start_date":"2021-02-09","end_date":"2021-03-07","name":"STAR","feed_network_name":null,"location":"Rennes","country_code":"FR"},{"id":158,"code":"BEEL","timezone":"America/New_York","bounds":{"min_lat":40.6424,"max_lat":41.5224,"min_lon":-74.1224,"max_lon":-73.5322},"bgtfs_hash":"bf5dfccf66a595ac5060730aaa94f569","bgtfs_feed_version":34827534,"bgtfs_uploaded_at":"2021-01-13T23:09:17Z","start_date":"2021-01-13","end_date":"2021-03-22","name":"Bee-Line","feed_network_name":null,"location":"NYC","country_code":"US"},{"id":162,"code":"SJSRT","timezone":"America/Montreal","bounds":{"min_lat":45.1814,"max_lat":45.5905,"min_lon":-73.6986,"max_lon":-73.0957},"bgtfs_hash":"b8e1da1918a2c848e99d23532a0887d8","bgtfs_feed_version":34765993,"bgtfs_uploaded_at":"2021-01-06T20:12:22Z","start_date":"2021-01-06","end_date":"2021-12-31","name":"Saint-Jean-sur-Richelieu","feed_network_name":null,"location":"Montréal","country_code":"CA"},{"id":164,"code":"ROSVT","timezone":"America/Los_Angeles","bounds":{"min_lat":37.653,"max_lat":38.9093,"min_lon":-121.6338,"max_lon":-121.0919},"bgtfs_hash":"e870740d6daabea49916d46cffc10784","bgtfs_feed_version":33802633,"bgtfs_uploaded_at":"2020-09-17T09:12:20Z","start_date":"2020-09-17","end_date":"2021-09-17","name":"Roseville Transit","feed_network_name":null,"location":"Sacramento","country_code":"US"},{"id":173,"code":"FHT","timezone":"America/Los_Angeles","bounds":{"min_lat":33.8042,"max_lat":34.2582,"min_lon":-118.4009,"max_lon":-117.5603},"bgtfs_hash":"038385a2bf2b10e0cc1791888e5ad186","bgtfs_feed_version":34150209,"bgtfs_uploaded_at":"2020-10-27T14:41:44Z","start_date":"2020-10-19","end_date":"2021-06-26","name":"Foothill Transit","feed_network_name":"","location":"Los Angeles","country_code":"US"},{"id":174,"code":"STAN","timezone":"Europe/Paris","bounds":{"min_lat":48.5273,"max_lat":48.8204,"min_lon":5.978,"max_lon":6.4085},"bgtfs_hash":"5b84b64d0f90b759cd586a2e20cdfcea","bgtfs_feed_version":34957710,"bgtfs_uploaded_at":"2021-01-29T00:45:12Z","start_date":"2021-01-29","end_date":"2021-02-21","name":"STAN","feed_network_name":null,"location":"Nancy","country_code":"FR"},{"id":175,"code":"TARC","timezone":"America/Kentucky/Louisville","bounds":{"min_lat":37.9541,"max_lat":38.4865,"min_lon":-86.0313,"max_lon":-85.3683},"bgtfs_hash":"917d4fd9a0b4e66f4ef57c934b816742","bgtfs_feed_version":34933767,"bgtfs_uploaded_at":"2021-01-26T06:14:45Z","start_date":"2021-01-26","end_date":"2021-06-05","name":"Transit Authority of River City","feed_network_name":"TARC","location":"Louisville","country_code":"US"},{"id":176,"code":"RTCNV","timezone":"America/Los_Angeles","bounds":{"min_lat":35.8636,"max_lat":36.4091,"min_lon":-115.4662,"max_lon":-114.6931},"bgtfs_hash":"62fd44f2d70ec9f19cd1b938b85216a2","bgtfs_feed_version":34809701,"bgtfs_uploaded_at":"2021-01-11T21:37:08Z","start_date":"2021-01-11","end_date":"2021-03-06","name":"Regional Transportation Commission of Southern Nevada","feed_network_name":"RTC","location":"Las Vegas","country_code":"US"},{"id":177,"code":"MIWAY","timezone":"America/Toronto","bounds":{"min_lat":43.3884,"max_lat":43.8314,"min_lon":-79.9223,"max_lon":-79.3933},"bgtfs_hash":"abac1377f14eb5de217e7160495290a7","bgtfs_feed_version":35068617,"bgtfs_uploaded_at":"2021-02-10T20:49:51Z","start_date":"2021-02-10","end_date":"2021-04-25","name":"MiWay","feed_network_name":null,"location":"Toronto","country_code":"CA"},{"id":178,"code":"VMAZ","timezone":"America/Phoenix","bounds":{"min_lat":32.2689,"max_lat":33.8246,"min_lon":-113.0039,"max_lon":-111.534},"bgtfs_hash":"aaf6e000bd4b6acae5ade493427db3aa","bgtfs_feed_version":34934483,"bgtfs_uploaded_at":"2021-01-26T08:14:10Z","start_date":"2021-01-26","end_date":"2021-04-25","name":"Valley Metro","feed_network_name":null,"location":"Phoenix","country_code":"US"},{"id":179,"code":"BCTFL","timezone":"America/New_York","bounds":{"min_lat":25.6412,"max_lat":26.4714,"min_lon":-80.5631,"max_lon":-79.9413},"bgtfs_hash":"4dfbe737f1e7823a7674af65f2569233","bgtfs_feed_version":34588799,"bgtfs_uploaded_at":"2020-12-17T08:00:00Z","start_date":"2020-12-17","end_date":"2021-03-20","name":"Broward County Transit","feed_network_name":"","location":"Miami","country_code":"US"},{"id":180,"code":"CTPM","timezone":"Europe/Paris","bounds":{"min_lat":42.5179,"max_lat":42.9658,"min_lon":2.4768,"max_lon":3.1743},"bgtfs_hash":"eb15fc46ac87e85fdc3478a8a8296608","bgtfs_feed_version":35051153,"bgtfs_uploaded_at":"2021-02-08T20:19:01Z","start_date":"2021-02-08","end_date":"2021-04-18","name":"Sankéo (CTPM)","feed_network_name":"Sankéo","location":"Perpignan","country_code":"FR"},{"id":181,"code":"BBB","timezone":"America/Los_Angeles","bounds":{"min_lat":33.8196,"max_lat":34.1866,"min_lon":-118.6785,"max_lon":-118.1026},"bgtfs_hash":"cbdd08296822daceb21a3a2778135160","bgtfs_feed_version":35025313,"bgtfs_uploaded_at":"2021-02-05T20:32:21Z","start_date":"2021-02-02","end_date":"2021-04-10","name":"Big Blue Bus","feed_network_name":"","location":"Los Angeles","country_code":"US"},{"id":182,"code":"ROAMT","timezone":"America/Edmonton","bounds":{"min_lat":50.9171,"max_lat":51.5575,"min_lon":-116.4238,"max_lon":-115.1017},"bgtfs_hash":"fa456658031e5a9f61bcd5b2e38928fd","bgtfs_feed_version":34813468,"bgtfs_uploaded_at":"2021-01-12T08:04:50Z","start_date":"2021-01-12","end_date":"2021-06-24","name":"Roam Transit","feed_network_name":null,"location":"Banff","country_code":"CA"},{"id":183,"code":"STTR","timezone":"America/Montreal","bounds":{"min_lat":46.1874,"max_lat":46.5152,"min_lon":-72.8181,"max_lon":-72.3472},"bgtfs_hash":"33765a887f94be7801fa5c1808b0d3b8","bgtfs_feed_version":34601554,"bgtfs_uploaded_at":"2020-12-18T19:25:46Z","start_date":"2020-12-18","end_date":"2021-03-30","name":"Société de Transport de Trois-Rivières","feed_network_name":"STTR","location":"Trois-Rivières","country_code":"CA"},{"id":184,"code":"BTON","timezone":"America/Toronto","bounds":{"min_lat":43.1598,"max_lat":43.5078,"min_lon":-80.0232,"max_lon":-79.5904},"bgtfs_hash":"2083a2e05afa8a696a76210fccae9813","bgtfs_feed_version":34645693,"bgtfs_uploaded_at":"2020-12-23T22:02:21Z","start_date":"2020-12-23","end_date":"2021-03-06","name":"Burlington Transit","feed_network_name":"","location":"Toronto","country_code":"CA"},{"id":189,"code":"GCRTA","timezone":"America/New_York","bounds":{"min_lat":41.1297,"max_lat":41.7344,"min_lon":-82.1019,"max_lon":-81.3056},"bgtfs_hash":"466e1295359f3139d78b3df56a5be207","bgtfs_feed_version":34594321,"bgtfs_uploaded_at":"2020-12-17T23:20:32Z","start_date":"2020-12-17","end_date":"2021-03-06","name":"Greater Cleveland Regional Transit Authority","feed_network_name":"GCRTA","location":"Cleveland","country_code":"US"},{"id":190,"code":"SCCA","timezone":"America/Los_Angeles","bounds":{"min_lat":38.1309,"max_lat":38.9172,"min_lon":-123.1882,"max_lon":-122.3262},"bgtfs_hash":"768f2ba9fdcd5fa527fcf22bd7a826f4","bgtfs_feed_version":34461681,"bgtfs_uploaded_at":"2020-12-02T14:53:43Z","start_date":"2020-12-02","end_date":"2021-05-01","name":"Sonoma County Transit","feed_network_name":null,"location":"SF Bay Area","country_code":"US"},{"id":197,"code":"MWRTA","timezone":"America/New_York","bounds":{"min_lat":42.03,"max_lat":42.4968,"min_lon":-71.7467,"max_lon":-71.1129},"bgtfs_hash":"6b62e44fdc6489b887bbe274becc56ea","bgtfs_feed_version":34160408,"bgtfs_uploaded_at":"2020-10-28T19:01:32Z","start_date":"2020-10-19","end_date":"2021-02-20","name":"MetroWest RTA","feed_network_name":null,"location":"Boston","country_code":"US"},{"id":215,"code":"MATCA","timezone":"America/Los_Angeles","bounds":{"min_lat":37.7512,"max_lat":38.2285,"min_lon":-122.9836,"max_lon":-122.3218},"bgtfs_hash":"d1a743c6ab42a281cb39c0ced95e2502","bgtfs_feed_version":34571952,"bgtfs_uploaded_at":"2020-12-15T09:12:09Z","start_date":"2020-12-15","end_date":"2021-06-12","name":"Marin Transit","feed_network_name":null,"location":"SF Bay Area","country_code":"US"},{"id":216,"code":"KITSAPWA","timezone":"America/Los_Angeles","bounds":{"min_lat":47.298,"max_lat":47.9013,"min_lon":-122.8405,"max_lon":-122.2036},"bgtfs_hash":"c141d10352859ea83b54e0f1ba8ea3a7","bgtfs_feed_version":34934776,"bgtfs_uploaded_at":"2021-01-26T09:02:53Z","start_date":"2021-01-26","end_date":"2021-12-31","name":"Kitsap Transit","feed_network_name":"","location":"Seattle","country_code":"US"},{"id":218,"code":"HARTFL","timezone":"America/New_York","bounds":{"min_lat":27.5889,"max_lat":28.3131,"min_lon":-82.7157,"max_lon":-82.0804},"bgtfs_hash":"b1093ec97ef17c82fdacbe33e35914c9","bgtfs_feed_version":34899255,"bgtfs_uploaded_at":"2021-01-22T06:22:46Z","start_date":"2021-01-22","end_date":"2021-04-24","name":"Hillsborough Area Regional Transit Authority","feed_network_name":"HART","location":"Tampa","country_code":"US"},{"id":219,"code":"SORTAOH","timezone":"America/Detroit","bounds":{"min_lat":38.9538,"max_lat":39.4605,"min_lon":-84.9281,"max_lon":-84.1253},"bgtfs_hash":"517d02cc076c32ef882922feb18e2cd2","bgtfs_feed_version":34933905,"bgtfs_uploaded_at":"2021-01-26T06:37:54Z","start_date":"2021-01-26","end_date":"2021-03-06","name":"Metro","feed_network_name":"Metro SORTA","location":"Cincinnati","country_code":"US"},{"id":220,"code":"ACTIONAU","timezone":"Australia/Sydney","bounds":{"min_lat":-35.5807,"max_lat":-35.0363,"min_lon":148.8602,"max_lon":149.3251},"bgtfs_hash":"50d512bbbbd6c56919f78185a0d8d6b4","bgtfs_feed_version":34928451,"bgtfs_uploaded_at":"2021-01-25T15:28:51Z","start_date":"2021-01-26","end_date":"2021-04-02","name":"ACTION","feed_network_name":"","location":"Canberra, AU","country_code":"AU"},{"id":222,"code":"CTTNH","timezone":"America/New_York","bounds":{"min_lat":41.1061,"max_lat":41.6537,"min_lon":-73.2239,"max_lon":-72.4629},"bgtfs_hash":"7c93fc1bcc98c1b55aad14cdfdcea4de","bgtfs_feed_version":34878280,"bgtfs_uploaded_at":"2021-01-19T20:06:51Z","start_date":"2021-01-13","end_date":"2021-04-11","name":"CTTransit New Haven","feed_network_name":null,"location":"Connecticut","country_code":"US"},{"id":223,"code":"MMTWI","timezone":"America/Chicago","bounds":{"min_lat":42.8907,"max_lat":43.2743,"min_lon":-89.6984,"max_lon":-89.1126},"bgtfs_hash":"74751387ef9686109f9a120a43c73ce7","bgtfs_feed_version":34942761,"bgtfs_uploaded_at":"2021-01-27T07:13:41Z","start_date":"2021-01-27","end_date":"2021-05-08","name":"Madison Metro","feed_network_name":null,"location":"Madison","country_code":"US"},{"id":224,"code":"CTTSTAM","timezone":"America/New_York","bounds":{"min_lat":40.8963,"max_lat":41.6568,"min_lon":-73.9083,"max_lon":-72.664},"bgtfs_hash":"fdb0b07a9653cc5f7aabdc18a472b353","bgtfs_feed_version":34827463,"bgtfs_uploaded_at":"2021-01-13T22:57:22Z","start_date":"2021-01-13","end_date":"2021-12-31","name":"CTTransit Stamford","feed_network_name":null,"location":"Connecticut","country_code":"US"},{"id":225,"code":"CTTWAT","timezone":"America/New_York","bounds":{"min_lat":41.327,"max_lat":41.9023,"min_lon":-73.3582,"max_lon":-72.6583},"bgtfs_hash":"69e2661c3c7eb92b0e4dbccf1065ca8f","bgtfs_feed_version":34827438,"bgtfs_uploaded_at":"2021-01-13T22:53:15Z","start_date":"2021-01-13","end_date":"2021-12-31","name":"CTTransit Waterbury","feed_network_name":null,"location":"Connecticut","country_code":"US"},{"id":227,"code":"CDTANY","timezone":"America/New_York","bounds":{"min_lat":42.369,"max_lat":43.2052,"min_lon":-74.1449,"max_lon":-73.48},"bgtfs_hash":"ba54da9cab0488161f99f7cf6f01b08c","bgtfs_feed_version":35015322,"bgtfs_uploaded_at":"2021-02-04T16:47:13Z","start_date":"2021-02-04","end_date":"2021-04-24","name":"Capital District Transportation Authority","feed_network_name":"CDTA","location":"Albany","country_code":"US"},{"id":228,"code":"RIPTARI","timezone":"America/New_York","bounds":{"min_lat":41.2729,"max_lat":42.117,"min_lon":-71.9646,"max_lon":-71.0195},"bgtfs_hash":"0ffa2f606b026f1be88355536d100064","bgtfs_feed_version":34867928,"bgtfs_uploaded_at":"2021-01-18T15:21:35Z","start_date":"2021-01-18","end_date":"2021-06-18","name":"Rhode Island Public Transit Authority","feed_network_name":"RIPTA","location":"Providence","country_code":"US"},{"id":229,"code":"BATBUSMA","timezone":"America/New_York","bounds":{"min_lat":41.8844,"max_lat":42.3825,"min_lon":-71.281,"max_lon":-70.7731},"bgtfs_hash":"014e33a71d79f1d87c6f6e21f6a9e020","bgtfs_feed_version":35071940,"bgtfs_uploaded_at":"2021-02-11T06:03:33Z","start_date":"2021-02-11","end_date":"2021-12-31","name":"Brockton Area Transit","feed_network_name":"bat","location":"Boston","country_code":"US"},{"id":231,"code":"LRTAMA","timezone":"America/New_York","bounds":{"min_lat":42.3812,"max_lat":42.798,"min_lon":-71.6005,"max_lon":-71.0409},"bgtfs_hash":"7538fe11b8e87702a877eeb3c5f31c1b","bgtfs_feed_version":34786867,"bgtfs_uploaded_at":"2021-01-09T06:11:16Z","start_date":"2021-01-09","end_date":"2021-12-17","name":"Lowell RTA","feed_network_name":null,"location":"Boston","country_code":"US"},{"id":233,"code":"CATAMA","timezone":"America/New_York","bounds":{"min_lat":42.4475,"max_lat":42.7833,"min_lon":-71.074,"max_lon":-70.4662},"bgtfs_hash":"39061270b0432cc7b73367daa344eabe","bgtfs_feed_version":34954178,"bgtfs_uploaded_at":"2021-01-28T14:56:26Z","start_date":"2021-01-28","end_date":"2022-01-01","name":"Cape Ann Transportation Authority","feed_network_name":"CATA","location":"Boston","country_code":"US"},{"id":234,"code":"VREVA","timezone":"America/New_York","bounds":{"min_lat":38.116,"max_lat":39.0017,"min_lon":-77.6592,"max_lon":-76.8715},"bgtfs_hash":"3493863d1e7fda00543e5977444e52e6","bgtfs_feed_version":35071935,"bgtfs_uploaded_at":"2021-02-11T06:02:37Z","start_date":"2021-02-11","end_date":"2021-05-12","name":"Virginia Railway Express","feed_network_name":"","location":"Washington D.C.","country_code":"US"},{"id":235,"code":"TANKKY","timezone":"America/New_York","bounds":{"min_lat":38.8507,"max_lat":39.2202,"min_lon":-84.8629,"max_lon":-84.2661},"bgtfs_hash":"53e7f6507ae721edbde50d7192acaa7a","bgtfs_feed_version":34954105,"bgtfs_uploaded_at":"2021-01-28T14:44:20Z","start_date":"2021-01-28","end_date":"2021-04-03","name":"TANK","feed_network_name":"","location":"Cincinnati","country_code":"US"},{"id":236,"code":"CCTGA","timezone":"US/Eastern","bounds":{"min_lat":33.6397,"max_lat":34.1495,"min_lon":-84.754,"max_lon":-84.2527},"bgtfs_hash":"9c9415781cc2033ed1d05571b1f1a98e","bgtfs_feed_version":34143507,"bgtfs_uploaded_at":"2020-10-26T20:04:42Z","start_date":"2020-10-26","end_date":"2021-06-26","name":"CobbLinc","feed_network_name":null,"location":"Atlanta","country_code":"US"},{"id":237,"code":"GRTAGA","timezone":"America/New_York","bounds":{"min_lat":33.2699,"max_lat":34.3414,"min_lon":-84.9062,"max_lon":-83.7723},"bgtfs_hash":"7ff3e2cc880adfc66f1e259802509832","bgtfs_feed_version":34756380,"bgtfs_uploaded_at":"2021-01-05T17:30:12Z","start_date":"2021-01-05","end_date":"2021-04-04","name":"Xpress","feed_network_name":"","location":"Atlanta","country_code":"US"},{"id":238,"code":"NFTANY","timezone":"America/New_York","bounds":{"min_lat":42.482,"max_lat":43.2755,"min_lon":-79.2514,"max_lon":-78.4746},"bgtfs_hash":"3091f06a72afe4f36d66a08b2781afbb","bgtfs_feed_version":34752320,"bgtfs_uploaded_at":"2021-01-05T06:13:35Z","start_date":"2021-01-05","end_date":"2021-03-06","name":"Niagara Frontier Transportation Authority","feed_network_name":"NFTA","location":"Buffalo","country_code":"US"},{"id":241,"code":"CTTHART","timezone":"America/New_York","bounds":{"min_lat":41.1951,"max_lat":42.121,"min_lon":-73.2596,"max_lon":-72.0685},"bgtfs_hash":"d4921bdfd4a2b35aa7100dc8ae4af469","bgtfs_feed_version":34827518,"bgtfs_uploaded_at":"2021-01-13T23:06:34Z","start_date":"2021-01-13","end_date":"2021-03-13","name":"CTTransit Hartford","feed_network_name":"","location":"Connecticut","country_code":"US"},{"id":242,"code":"CTTNB","timezone":"America/New_York","bounds":{"min_lat":41.4506,"max_lat":41.8652,"min_lon":-73.0835,"max_lon":-72.5411},"bgtfs_hash":"845f894b96ccae9103ba6fd57c36bf9f","bgtfs_feed_version":34827474,"bgtfs_uploaded_at":"2021-01-13T22:59:07Z","start_date":"2021-01-13","end_date":"2021-12-31","name":"CTTransit New Britain","feed_network_name":null,"location":"Connecticut","country_code":"US"},{"id":243,"code":"PSTAFL","timezone":"America/New_York","bounds":{"min_lat":27.5855,"max_lat":28.2733,"min_lon":-82.9852,"max_lon":-82.3191},"bgtfs_hash":"8e0651916a6fc49281bc8c78a813c820","bgtfs_feed_version":34962288,"bgtfs_uploaded_at":"2021-01-29T13:28:20Z","start_date":"2021-01-29","end_date":"2021-06-05","name":"Pinellas Suncoast Transit Authority","feed_network_name":"PSTA","location":"Tampa","country_code":"US"},{"id":244,"code":"CTTMERI","timezone":"America/New_York","bounds":{"min_lat":41.3559,"max_lat":41.6529,"min_lon":-72.976,"max_lon":-72.6284},"bgtfs_hash":"9acf865ff6c190ff5c529728d5c6ddf9","bgtfs_feed_version":34827468,"bgtfs_uploaded_at":"2021-01-13T22:58:09Z","start_date":"2021-01-13","end_date":"2021-12-31","name":"CTTransit Meriden","feed_network_name":null,"location":"Connecticut","country_code":"US"},{"id":259,"code":"STAZ","timezone":"America/Phoenix","bounds":{"min_lat":31.7871,"max_lat":32.597,"min_lon":-113.0044,"max_lon":-110.6378},"bgtfs_hash":"3e592525f9a9cd16560128a6f76e002f","bgtfs_feed_version":34891240,"bgtfs_uploaded_at":"2021-01-21T08:06:55Z","start_date":"2021-01-21","end_date":"2021-05-29","name":"Sun Tran","feed_network_name":null,"location":"Tucson","country_code":"US"},{"id":261,"code":"SRCA","timezone":"America/Los_Angeles","bounds":{"min_lat":38.2968,"max_lat":38.5849,"min_lon":-122.9045,"max_lon":-122.5193},"bgtfs_hash":"01da0c3a09993dee88b3d682ea0ecf3b","bgtfs_feed_version":35058197,"bgtfs_uploaded_at":"2021-02-09T15:53:05Z","start_date":"2021-02-09","end_date":"2022-02-05","name":"Santa Rosa CityBus","feed_network_name":null,"location":"SF Bay Area","country_code":"US"},{"id":264,"code":"ADELAU","timezone":"Australia/Adelaide","bounds":{"min_lat":-35.4482,"max_lat":-34.4619,"min_lon":138.3109,"max_lon":139.1706},"bgtfs_hash":"91c909927830d7dca0285eb56a0ea60b","bgtfs_feed_version":35023514,"bgtfs_uploaded_at":"2021-02-05T15:33:01Z","start_date":"2021-02-06","end_date":"2021-04-09","name":"Adelaide Metro","feed_network_name":"","location":"Adelaide, AU","country_code":"AU"},{"id":267,"code":"SWUDE","timezone":"Europe/Berlin","bounds":{"min_lat":48.2105,"max_lat":48.5443,"min_lon":9.7483,"max_lon":10.1618},"bgtfs_hash":"fcebdeb6dbfe75628301cdfadee253f5","bgtfs_feed_version":34601999,"bgtfs_uploaded_at":"2020-12-18T20:40:04Z","start_date":"2020-12-18","end_date":"2021-12-11","name":"SWU","feed_network_name":null,"location":"Ulm","country_code":"DE"},{"id":269,"code":"STSQC","timezone":"America/Montreal","bounds":{"min_lat":45.2203,"max_lat":45.5741,"min_lon":-72.2125,"max_lon":-71.6821},"bgtfs_hash":"bd33189655631e85635cb88e9a598616","bgtfs_feed_version":34743664,"bgtfs_uploaded_at":"2021-01-04T06:10:51Z","start_date":"2021-01-04","end_date":"2021-06-27","name":"Société de Transport de Sherbrooke","feed_network_name":"STS","location":"Sherbrooke","country_code":"CA"},{"id":272,"code":"ICT","timezone":"America/Los_Angeles","bounds":{"min_lat":46.8418,"max_lat":47.1816,"min_lon":-123.1117,"max_lon":-122.4447},"bgtfs_hash":"f04ba1a7c24aeca8291d0045a1507241","bgtfs_feed_version":34826997,"bgtfs_uploaded_at":"2021-01-13T21:39:45Z","start_date":"2021-01-13","end_date":"2022-01-13","name":"Intercity Transit","feed_network_name":null,"location":"Seattle","country_code":"US"},{"id":273,"code":"LADOT","timezone":"America/Los_Angeles","bounds":{"min_lat":33.6095,"max_lat":34.4335,"min_lon":-119.0171,"max_lon":-117.9976},"bgtfs_hash":"1e0cfd39ed19a84f7ff6b78ae78f81d8","bgtfs_feed_version":35055794,"bgtfs_uploaded_at":"2021-02-09T09:12:33Z","start_date":"2021-02-09","end_date":"2022-02-09","name":"Los Angeles Department of Transportation","feed_network_name":"LADOT","location":"Los Angeles","country_code":"US"},{"id":274,"code":"SAT","timezone":"America/Edmonton","bounds":{"min_lat":53.3896,"max_lat":53.8011,"min_lon":-113.8957,"max_lon":-113.2678},"bgtfs_hash":"572d739ef1f9557771721c82198777fd","bgtfs_feed_version":34943063,"bgtfs_uploaded_at":"2021-01-27T08:03:58Z","start_date":"2021-01-27","end_date":"2021-04-24","name":"St. Albert Transit","feed_network_name":null,"location":"Edmonton","country_code":"CA"},{"id":275,"code":"OTCA","timezone":"America/Los_Angeles","bounds":{"min_lat":33.8638,"max_lat":34.3011,"min_lon":-117.8818,"max_lon":-116.9027},"bgtfs_hash":"33d357fdef1252b852328360d34ca578","bgtfs_feed_version":34701510,"bgtfs_uploaded_at":"2020-12-30T09:05:14Z","start_date":"2020-12-30","end_date":"2021-05-02","name":"Omnitrans","feed_network_name":null,"location":"Los Angeles","country_code":"US"},{"id":276,"code":"WSF","timezone":"America/Los_Angeles","bounds":{"min_lat":47.2142,"max_lat":48.6823,"min_lon":-123.1491,"max_lon":-122.1717},"bgtfs_hash":"fba43e95e70f3b29d114f2dcf4711184","bgtfs_feed_version":35021184,"bgtfs_uploaded_at":"2021-02-05T09:04:10Z","start_date":"2021-02-05","end_date":"2021-05-08","name":"Washington State Ferries","feed_network_name":"","location":"Seattle","country_code":"US"},{"id":277,"code":"ATNY","timezone":"America/New_York","bounds":{"min_lat":40.5451,"max_lat":40.799,"min_lon":-73.9618,"max_lon":-73.6474},"bgtfs_hash":"d210697527d5598ea095ab54e5c2bef2","bgtfs_feed_version":34864594,"bgtfs_uploaded_at":"2021-01-18T06:05:46Z","start_date":"2021-01-18","end_date":"2021-02-18","name":"AirTrain JFK","feed_network_name":null,"location":"NYC","country_code":"US"},{"id":280,"code":"RTSK","timezone":"America/Regina","bounds":{"min_lat":50.2715,"max_lat":50.6369,"min_lon":-104.9111,"max_lon":-104.2999},"bgtfs_hash":"4b16cce9c65095bb7b76dff4d0fcd08b","bgtfs_feed_version":34882264,"bgtfs_uploaded_at":"2021-01-20T07:10:46Z","start_date":"2021-01-20","end_date":"2021-05-08","name":"Regina Transit","feed_network_name":null,"location":"Regina","country_code":"CA"},{"id":281,"code":"NICTD","timezone":"America/Chicago","bounds":{"min_lat":41.498,"max_lat":41.9827,"min_lon":-87.7552,"max_lon":-86.1762},"bgtfs_hash":"7ee35fbd87b57cfbafbe2cd06aacdb36","bgtfs_feed_version":34765458,"bgtfs_uploaded_at":"2021-01-06T18:43:05Z","start_date":"2021-01-06","end_date":"2021-12-31","name":"Northern Indiana Commuter Transportation District","feed_network_name":"South Shore Line","location":"Chicago","country_code":"US"},{"id":282,"code":"BCTC","timezone":"America/Vancouver","bounds":{"min_lat":48.9844,"max_lat":49.4688,"min_lon":-122.1855,"max_lon":-121.286},"bgtfs_hash":"1598f55368eca0788103121f473d2ea3","bgtfs_feed_version":33797837,"bgtfs_uploaded_at":"2020-09-16T19:53:02Z","start_date":"2020-08-18","end_date":"2021-06-26","name":"BC Transit (Chilliwack)","feed_network_name":"BC Transit Chilliwack","location":"Chilliwack","country_code":"CA"},{"id":283,"code":"BCTCV","timezone":"America/Vancouver","bounds":{"min_lat":49.3899,"max_lat":49.957,"min_lon":-125.2817,"max_lon":-124.6611},"bgtfs_hash":"54c8af5c7b06d0ea53d7e39e228492d2","bgtfs_feed_version":35057910,"bgtfs_uploaded_at":"2021-02-09T15:05:13Z","start_date":"2021-02-09","end_date":"2021-05-10","name":"BC Transit (Comox Valley)","feed_network_name":"BC Transit Comox Valley","location":"Comox Valley","country_code":"CA"},{"id":284,"code":"HVVDE","timezone":"Europe/Berlin","bounds":{"min_lat":53.2316,"max_lat":53.928,"min_lon":9.4501,"max_lon":10.7854},"bgtfs_hash":"b79d6174c2ac38dd0f66ff9668cb989c","bgtfs_feed_version":34841798,"bgtfs_uploaded_at":"2021-01-15T14:46:55Z","start_date":"2021-01-15","end_date":"2021-12-11","name":"HVV","feed_network_name":"HVV","location":"Hamburg","country_code":"DE"},{"id":285,"code":"SJRTD","timezone":"America/Los_Angeles","bounds":{"min_lat":37.5808,"max_lat":38.681,"min_lon":-122.0313,"max_lon":-120.8613},"bgtfs_hash":"9d8f48dd8198c79f603d4282cf38f052","bgtfs_feed_version":34943422,"bgtfs_uploaded_at":"2021-01-27T09:03:47Z","start_date":"2021-01-27","end_date":"2021-06-05","name":"San Joaquin RTD","feed_network_name":null,"location":"Stockton","country_code":"US"},{"id":286,"code":"NORTA","timezone":"America/Chicago","bounds":{"min_lat":29.7866,"max_lat":30.1846,"min_lon":-90.4065,"max_lon":-89.7751},"bgtfs_hash":"3acfa0e62afd259f7a1c2d66495416f7","bgtfs_feed_version":34890882,"bgtfs_uploaded_at":"2021-01-21T07:07:10Z","start_date":"2021-01-21","end_date":"2021-02-21","name":"New Orleans RTA","feed_network_name":null,"location":"New Orleans","country_code":"US"},{"id":287,"code":"SKTOR","timezone":"America/Los_Angeles","bounds":{"min_lat":44.6534,"max_lat":45.4054,"min_lon":-123.4523,"max_lon":-122.2821},"bgtfs_hash":"3b70dd3b9479b3af7a0f5c176303ce43","bgtfs_feed_version":34844016,"bgtfs_uploaded_at":"2021-01-15T20:56:08Z","start_date":"2021-01-15","end_date":"2021-05-01","name":"Cherriots","feed_network_name":null,"location":"Salem-Keizer","country_code":"US"},{"id":290,"code":"KTON","timezone":"Canada/Eastern","bounds":{"min_lat":44.1239,"max_lat":44.3753,"min_lon":-76.8014,"max_lon":-76.307},"bgtfs_hash":"40b6e31a7f715c3f474c9239da358509","bgtfs_feed_version":34943809,"bgtfs_uploaded_at":"2021-01-27T10:08:24Z","start_date":"2021-01-27","end_date":"2022-01-26","name":"Kingston Transit","feed_network_name":null,"location":"Kingston","country_code":"CA"},{"id":291,"code":"LTC","timezone":"America/Toronto","bounds":{"min_lat":42.8109,"max_lat":43.1486,"min_lon":-81.4969,"max_lon":-81.0058},"bgtfs_hash":"79197d4cfedc8b124ef7daf72a996d20","bgtfs_feed_version":34907907,"bgtfs_uploaded_at":"2021-01-23T06:24:42Z","start_date":"2021-01-23","end_date":"2021-05-01","name":"London Transit","feed_network_name":null,"location":"London, ON","country_code":"CA"},{"id":295,"code":"OTON","timezone":"America/New_York","bounds":{"min_lat":43.2755,"max_lat":43.6402,"min_lon":-79.9592,"max_lon":-79.498},"bgtfs_hash":"a3cb68d7a56ca4113f5e1905d834fb2a","bgtfs_feed_version":35051087,"bgtfs_uploaded_at":"2021-02-08T20:08:00Z","start_date":"2021-01-20","end_date":"2021-02-27","name":"Oakville Transit","feed_network_name":"","location":"Toronto","country_code":"CA"},{"id":297,"code":"NYW","timezone":"America/New_York","bounds":{"min_lat":40.3306,"max_lat":41.606,"min_lon":-74.2136,"max_lon":-73.7355},"bgtfs_hash":"05a0de3eb6a69cea804f1f05a94565be","bgtfs_feed_version":34847327,"bgtfs_uploaded_at":"2021-01-16T06:08:01Z","start_date":"2021-01-16","end_date":"2022-01-16","name":"NY Waterway","feed_network_name":null,"location":"NYC","country_code":"US"},{"id":298,"code":"NRUK","timezone":"Europe/London","bounds":{"min_lat":51.0969,"max_lat":51.8851,"min_lon":-0.8304,"max_lon":0.6425},"bgtfs_hash":"f9dda00665fdf6ab36276356e9e22ba7","bgtfs_feed_version":35076738,"bgtfs_uploaded_at":"2021-02-11T19:23:12Z","start_date":"2021-02-10","end_date":"2021-05-15","name":"London Overground","feed_network_name":null,"location":"London, UK","country_code":"GB"},{"id":299,"code":"CARTA","timezone":"America/New_York","bounds":{"min_lat":34.8803,"max_lat":35.2479,"min_lon":-85.4604,"max_lon":-84.9944},"bgtfs_hash":"b647494c2eacb273ed221fa6924de152","bgtfs_feed_version":34143045,"bgtfs_uploaded_at":"2020-10-26T18:47:42Z","start_date":"2020-08-18","end_date":"2021-05-14","name":"Chattanooga Area Regional Transportation Authority (CARTA)","feed_network_name":"CARTA","location":"Chattanooga","country_code":"US"},{"id":301,"code":"TRMI","timezone":"America/New_York","bounds":{"min_lat":42.7456,"max_lat":43.1394,"min_lon":-86.0397,"max_lon":-85.3703},"bgtfs_hash":"8fb960e50ff4055a2d9701b0524dbcb6","bgtfs_feed_version":34925085,"bgtfs_uploaded_at":"2021-01-25T06:07:42Z","start_date":"2021-01-25","end_date":"2021-02-25","name":"The Rapid","feed_network_name":null,"location":"Grand Rapids","country_code":"US"},{"id":302,"code":"SCT","timezone":"Canada/Mountain","bounds":{"min_lat":53.3762,"max_lat":53.6954,"min_lon":-113.7457,"max_lon":-113.0278},"bgtfs_hash":"20438e085294155f6ec2bd67b84a7460","bgtfs_feed_version":34943068,"bgtfs_uploaded_at":"2021-01-27T08:04:52Z","start_date":"2021-01-27","end_date":"2021-04-24","name":"Strathcona County Transit","feed_network_name":null,"location":"Edmonton","country_code":"CA"},{"id":303,"code":"DASH","timezone":"America/New_York","bounds":{"min_lat":38.6966,"max_lat":38.9724,"min_lon":-77.2773,"max_lon":-76.9054},"bgtfs_hash":"d58780a24864a84144ba0828af19b6a1","bgtfs_feed_version":34514935,"bgtfs_uploaded_at":"2020-12-08T18:49:24Z","start_date":"2020-09-15","end_date":"2021-03-27","name":"Alexandria Transit Company","feed_network_name":"DASH","location":"Washington D.C.","country_code":"US"},{"id":304,"code":"NMTA","timezone":"America/Chicago","bounds":{"min_lat":35.633,"max_lat":36.633,"min_lon":-87.5089,"max_lon":-86.1643},"bgtfs_hash":"26a3ce887f556d8a894aa0bcb8a2dce1","bgtfs_feed_version":34571472,"bgtfs_uploaded_at":"2020-12-15T07:52:13Z","start_date":"2020-12-15","end_date":"2021-04-03","name":"Nashville MTA & RTA","feed_network_name":"WeGo Public Transit","location":"Nashville","country_code":"US"},{"id":305,"code":"GBCA","timezone":"America/Los_Angeles","bounds":{"min_lat":34.0116,"max_lat":34.3337,"min_lon":-118.4468,"max_lon":-118.0413},"bgtfs_hash":"0f3d19e85ffb958246ae1a891481f4ec","bgtfs_feed_version":34183448,"bgtfs_uploaded_at":"2020-10-31T11:01:29Z","start_date":"2020-10-31","end_date":"2021-08-15","name":"Glendale Beeline","feed_network_name":"","location":"Los Angeles","country_code":"US"},{"id":306,"code":"ECT","timezone":"America/Chicago","bounds":{"min_lat":44.6729,"max_lat":44.9672,"min_lon":-91.683,"max_lon":-91.2926},"bgtfs_hash":"10ef71a8d81877c01b918bdf43339735","bgtfs_feed_version":34476279,"bgtfs_uploaded_at":"2020-12-04T07:26:42Z","start_date":"2020-12-04","end_date":"2021-12-04","name":"Eau Claire Transit","feed_network_name":"ECT","location":"Eau Claire","country_code":"US"},{"id":307,"code":"CATS","timezone":"America/New_York","bounds":{"min_lat":34.8187,"max_lat":35.6151,"min_lon":-81.3109,"max_lon":-80.4274},"bgtfs_hash":"3cb6d6dacd5a617455b3b7ae17bf6117","bgtfs_feed_version":34907917,"bgtfs_uploaded_at":"2021-01-23T06:26:19Z","start_date":"2021-01-23","end_date":"2021-06-06","name":"Charlotte Area Transit System","feed_network_name":"CATS","location":"Charlotte","country_code":"US"},{"id":308,"code":"ATSF","timezone":"America/Los_Angeles","bounds":{"min_lat":37.5134,"max_lat":37.7314,"min_lon":-122.5358,"max_lon":-122.2509},"bgtfs_hash":"e5f75f237d54d238fc6ca70c35628a23","bgtfs_feed_version":34384924,"bgtfs_uploaded_at":"2020-11-23T17:40:51Z","start_date":"2020-11-21","end_date":"2021-11-21","name":"SFO Shuttles","feed_network_name":"","location":"SF Bay Area","country_code":"US"},{"id":310,"code":"ATACIT","timezone":"Europe/Rome","bounds":{"min_lat":41.5498,"max_lat":42.5407,"min_lon":11.9732,"max_lon":12.9238},"bgtfs_hash":"70f9beb0236a990bc0f97ae9fb6b40d6","bgtfs_feed_version":35070542,"bgtfs_uploaded_at":"2021-02-11T02:11:25Z","start_date":"2021-02-11","end_date":"2021-06-16","name":"ATAC","feed_network_name":"ATAC Roma","location":"Roma","country_code":"IT"},{"id":313,"code":"AMATIT","timezone":"Europe/Rome","bounds":{"min_lat":45.2458,"max_lat":45.7218,"min_lon":8.8618,"max_lon":9.5708},"bgtfs_hash":"e3e98e17d33006e7d830654d3baed78a","bgtfs_feed_version":35009895,"bgtfs_uploaded_at":"2021-02-04T01:43:03Z","start_date":"2021-02-04","end_date":"2021-03-06","name":"AMAT","feed_network_name":"AMAT Milano","location":"Milano","country_code":"IT"},{"id":318,"code":"FWTATX","timezone":"America/Chicago","bounds":{"min_lat":32.4526,"max_lat":33.3312,"min_lon":-97.6139,"max_lon":-96.9012},"bgtfs_hash":"cbdd94eab09dd5fac51bcf0437a0516d","bgtfs_feed_version":34714670,"bgtfs_uploaded_at":"2020-12-31T21:38:26Z","start_date":"2021-01-03","end_date":"2021-08-07","name":"Fort Worth Transportation Authority","feed_network_name":"Trinity Metro","location":"Dallas","country_code":"US"},{"id":319,"code":"CFRTAFL","timezone":"America/New_York","bounds":{"min_lat":27.9909,"max_lat":28.9274,"min_lon":-81.8064,"max_lon":-81.073},"bgtfs_hash":"88e25a43dac2a9eaad3ea8c6e3d71a11","bgtfs_feed_version":34907887,"bgtfs_uploaded_at":"2021-01-23T06:21:23Z","start_date":"2021-01-23","end_date":"2021-04-24","name":"Lynx","feed_network_name":"","location":"Orlando","country_code":"US"},{"id":320,"code":"RITNY","timezone":"America/New_York","bounds":{"min_lat":40.6515,"max_lat":40.8677,"min_lon":-74.0898,"max_lon":-73.8084},"bgtfs_hash":"33de5f137ccb1813609783d7b0263a4a","bgtfs_feed_version":34791179,"bgtfs_uploaded_at":"2021-01-09T18:09:52Z","start_date":"2021-01-09","end_date":"2022-01-01","name":"Roosevelt Island","feed_network_name":null,"location":"NYC","country_code":"US"},{"id":321,"code":"TFGMUK","timezone":"Europe/London","bounds":{"min_lat":53.1438,"max_lat":53.9486,"min_lon":-3.2088,"max_lon":-1.2685},"bgtfs_hash":"81bdc6354629e1f399682cfe902dded3","bgtfs_feed_version":35028366,"bgtfs_uploaded_at":"2021-02-06T05:02:13Z","start_date":"2021-02-06","end_date":"2022-02-05","name":"Transport for Greater Manchester","feed_network_name":"TfGM","location":"Manchester","country_code":"GB"},{"id":323,"code":"LRUK","timezone":"Europe/London","bounds":{"min_lat":50.9269,"max_lat":52.0383,"min_lon":-1.2471,"max_lon":1.0261},"bgtfs_hash":"c57ea7026e1e9a4717fd6414fa0baa92","bgtfs_feed_version":35035860,"bgtfs_uploaded_at":"2021-02-07T01:50:19Z","start_date":"2021-02-07","end_date":"2021-03-06","name":"London Rail","feed_network_name":"","location":"London, UK","country_code":"GB"},{"id":324,"code":"MTMN","timezone":"America/Chicago","bounds":{"min_lat":44.6307,"max_lat":45.6535,"min_lon":-94.2887,"max_lon":-92.6771},"bgtfs_hash":"2db2dc7d3add16ea56f17d4870ae56c9","bgtfs_feed_version":35038027,"bgtfs_uploaded_at":"2021-02-07T07:51:41Z","start_date":"2021-02-07","end_date":"2021-03-26","name":"Metro Transit MN","feed_network_name":"Metro Transit","location":"Minneapolis-Saint Paul","country_code":"US"},{"id":325,"code":"AATAMI","timezone":"America/Detroit","bounds":{"min_lat":42.0878,"max_lat":42.4168,"min_lon":-83.9334,"max_lon":-83.4194},"bgtfs_hash":"980fdca18ec2ee4be2be0abbe26e6648","bgtfs_feed_version":34951000,"bgtfs_uploaded_at":"2021-01-28T06:06:52Z","start_date":"2021-01-28","end_date":"2021-04-24","name":"The Ride","feed_network_name":null,"location":"Ann Arbor","country_code":"US"},{"id":326,"code":"UOMMI","timezone":"America/Detroit","bounds":{"min_lat":42.1687,"max_lat":42.3936,"min_lon":-83.8823,"max_lon":-83.5616},"bgtfs_hash":"3eca7fbc1b64befe0c558eec68368e76","bgtfs_feed_version":34847314,"bgtfs_uploaded_at":"2021-01-16T06:05:44Z","start_date":"2021-01-16","end_date":"2021-05-01","name":"U-M Transit","feed_network_name":"","location":"Ann Arbor","country_code":"US"},{"id":329,"code":"CATNC","timezone":"America/New_York","bounds":{"min_lat":35.4659,"max_lat":36.0939,"min_lon":-78.9366,"max_lon":-78.319},"bgtfs_hash":"67a8e01907a54e1292cbb7c18d8d954d","bgtfs_feed_version":34838698,"bgtfs_uploaded_at":"2021-01-15T06:09:54Z","start_date":"2021-01-15","end_date":"2021-05-31","name":"GoRaleigh (ex CAT - Capital Area Transit)","feed_network_name":"GoRaleigh","location":"Raleigh","country_code":"US"},{"id":330,"code":"UONKE","timezone":"Africa/Nairobi","bounds":{"min_lat":-1.6099,"max_lat":-0.901,"min_lon":36.4953,"max_lon":37.2084},"bgtfs_hash":"0a0d3421e371829c3933ab17a0e26731","bgtfs_feed_version":33453713,"bgtfs_uploaded_at":"2020-08-07T23:59:09Z","start_date":"2020-08-07","end_date":"2021-08-07","name":"University Of Nairobi C4DLab","feed_network_name":"","location":"Nairobi","country_code":"KE"},{"id":333,"code":"TCLFR","timezone":"Europe/Paris","bounds":{"min_lat":45.476,"max_lat":46.0093,"min_lon":4.506,"max_lon":5.2614},"bgtfs_hash":"0608f4e31d1f910b352187f226940027","bgtfs_feed_version":35065240,"bgtfs_uploaded_at":"2021-02-10T11:27:12Z","start_date":"2021-02-10","end_date":"2021-04-10","name":"TCL","feed_network_name":"TCL","location":"Lyon","country_code":"FR"},{"id":334,"code":"TMBES","timezone":"Europe/Madrid","bounds":{"min_lat":41.1897,"max_lat":41.6005,"min_lon":1.9118,"max_lon":2.3787},"bgtfs_hash":"ea2aa3778affe3dd00ad4ae6acabad80","bgtfs_feed_version":34905822,"bgtfs_uploaded_at":"2021-01-23T00:37:24Z","start_date":"2021-01-23","end_date":"2021-09-17","name":"Transports Metropolitans de Barcelona","feed_network_name":"TMB","location":"Barcelona","country_code":"ES"},{"id":335,"code":"FGCES","timezone":"Europe/Madrid","bounds":{"min_lat":41.2475,"max_lat":41.8315,"min_lon":1.4969,"max_lon":2.3027},"bgtfs_hash":"530e40f7a25fe948ab61e837040c9739","bgtfs_feed_version":35058989,"bgtfs_uploaded_at":"2021-02-09T18:04:59Z","start_date":"2021-02-09","end_date":"2021-12-31","name":"Ferrocarrils de la Generalitat de Catalunya","feed_network_name":"FGC","location":"Barcelona","country_code":"ES"},{"id":337,"code":"TBXES","timezone":"Europe/Madrid","bounds":{"min_lat":41.2606,"max_lat":41.4911,"min_lon":1.9189,"max_lon":2.2756},"bgtfs_hash":"589127502dc11d866c20703cb9d0fb68","bgtfs_feed_version":34940202,"bgtfs_uploaded_at":"2021-01-27T00:07:06Z","start_date":"2021-01-27","end_date":"2021-12-31","name":"Trambaix","feed_network_name":"Trambaix","location":"Barcelona","country_code":"ES"},{"id":338,"code":"TBSES","timezone":"Europe/Madrid","bounds":{"min_lat":41.2933,"max_lat":41.5398,"min_lon":2.0521,"max_lon":2.3643},"bgtfs_hash":"4fbc9758276775121db26061ed4d9ffb","bgtfs_feed_version":34940198,"bgtfs_uploaded_at":"2021-01-27T00:06:29Z","start_date":"2021-01-27","end_date":"2021-12-31","name":"Trambesòs","feed_network_name":"Trambesòs","location":"Barcelona","country_code":"ES"},{"id":343,"code":"STCA","timezone":"America/Vancouver","bounds":{"min_lat":37.692,"max_lat":38.353,"min_lon":-122.5284,"max_lon":-121.9141},"bgtfs_hash":"fd29312c67dd64a0b5f4d2b3c525f428","bgtfs_feed_version":34834883,"bgtfs_uploaded_at":"2021-01-14T19:34:04Z","start_date":"2021-01-14","end_date":"2021-04-03","name":"SolTrans","feed_network_name":null,"location":"SF Bay Area","country_code":"US"},{"id":344,"code":"AMBES","timezone":"Europe/Madrid","bounds":{"min_lat":41.1649,"max_lat":41.5921,"min_lon":1.7967,"max_lon":2.4236},"bgtfs_hash":"96024d679bb10476c1631011946ca976","bgtfs_feed_version":35075116,"bgtfs_uploaded_at":"2021-02-11T14:52:56Z","start_date":"2021-02-11","end_date":"2022-02-11","name":"Àrea Metropolitana de Barcelona","feed_network_name":"AMB","location":"Barcelona","country_code":"ES"},{"id":345,"code":"RTMFR","timezone":"Europe/Paris","bounds":{"min_lat":43.1157,"max_lat":43.5051,"min_lon":5.1537,"max_lon":5.6597},"bgtfs_hash":"5b61eb3fea0f07086baf10f8e83abb7b","bgtfs_feed_version":35052895,"bgtfs_uploaded_at":"2021-02-09T01:09:24Z","start_date":"2021-02-09","end_date":"2021-05-07","name":"Régie des transports de Marseille","feed_network_name":"RTM","location":"Marseille","country_code":"FR"},{"id":346,"code":"AEBFR","timezone":"Europe/Paris","bounds":{"min_lat":43.3767,"max_lat":43.7094,"min_lon":5.1977,"max_lon":5.6775},"bgtfs_hash":"946ad9038f3e15b604f8a035d174a5a4","bgtfs_feed_version":34940306,"bgtfs_uploaded_at":"2021-01-27T00:24:31Z","start_date":"2021-01-27","end_date":"2021-02-21","name":"Aix en Bus","feed_network_name":null,"location":"Marseille","country_code":"FR"},{"id":347,"code":"FIEFR","timezone":"Europe/Paris","bounds":{"min_lat":43.1835,"max_lat":43.3886,"min_lon":5.1764,"max_lon":5.505},"bgtfs_hash":"d76c2c7fe86fb51f631774aa22eb0394","bgtfs_feed_version":34569869,"bgtfs_uploaded_at":"2020-12-15T03:25:02Z","start_date":"2020-12-15","end_date":"2021-04-03","name":"Frioul-If Express","feed_network_name":null,"location":"Marseille","country_code":"FR"},{"id":348,"code":"SNCF13FR","timezone":"Europe/Paris","bounds":{"min_lat":43.1017,"max_lat":44.0499,"min_lon":4.4979,"max_lon":5.766},"bgtfs_hash":"bf5376ab858bf6fd75c67496adfe72ee","bgtfs_feed_version":34871129,"bgtfs_uploaded_at":"2021-01-19T00:15:05Z","start_date":"2021-01-19","end_date":"2021-04-18","name":"TER Bouches-du-Rhône","feed_network_name":null,"location":"Marseille","country_code":"FR"},{"id":349,"code":"C13FR","timezone":"Europe/Paris","bounds":{"min_lat":43.0634,"max_lat":44.0021,"min_lon":4.6086,"max_lon":5.8614},"bgtfs_hash":"2d0901d06dd3941bd8069082a335fd83","bgtfs_feed_version":34746872,"bgtfs_uploaded_at":"2021-01-04T15:05:35Z","start_date":"2021-01-04","end_date":"2021-12-28","name":"Cartreize","feed_network_name":null,"location":"Marseille","country_code":"FR"},{"id":350,"code":"CBFR","timezone":"Europe/Paris","bounds":{"min_lat":43.0733,"max_lat":43.3211,"min_lon":5.4536,"max_lon":5.7898},"bgtfs_hash":"13b3be5a906452a25a2988e651d2ad59","bgtfs_feed_version":34784697,"bgtfs_uploaded_at":"2021-01-09T00:09:42Z","start_date":"2021-01-09","end_date":"2021-12-03","name":"Ciotabus","feed_network_name":null,"location":"Marseille","country_code":"FR"},{"id":351,"code":"CPAFR","timezone":"Europe/Paris","bounds":{"min_lat":43.2774,"max_lat":43.8282,"min_lon":5.0348,"max_lon":5.9032},"bgtfs_hash":"2271aac34e964ace70056755a4e00e70","bgtfs_feed_version":35068964,"bgtfs_uploaded_at":"2021-02-10T21:47:39Z","start_date":"2021-02-10","end_date":"2021-12-28","name":"Pays d'Aix Mobilité (Cars du Pays d'Aix)","feed_network_name":"Pays d'Aix Mobilité","location":"Pays d'Aix","country_code":"FR"},{"id":352,"code":"ENVIAFR","timezone":"Europe/Paris","bounds":{"min_lat":43.2559,"max_lat":43.9612,"min_lon":4.2321,"max_lon":4.9573},"bgtfs_hash":"5ebc0a73838b7da4583499cfd26dbf14","bgtfs_feed_version":34767638,"bgtfs_uploaded_at":"2021-01-07T00:46:27Z","start_date":"2021-01-07","end_date":"2021-09-30","name":"EnVIA (Arles)","feed_network_name":"EnVIA","location":"Marseille","country_code":"FR"},{"id":353,"code":"LBDLAFR","timezone":"Europe/Paris","bounds":{"min_lat":43.1766,"max_lat":43.5009,"min_lon":5.37,"max_lon":5.8605},"bgtfs_hash":"a43faa12ab732f410c47e4f8a68cbcf4","bgtfs_feed_version":34954190,"bgtfs_uploaded_at":"2021-01-28T14:58:34Z","start_date":"2021-01-28","end_date":"2021-07-11","name":"Lignes de l'Agglo (Les bus de l'Agglo)","feed_network_name":"Lignes de l'Agglo","location":"Marseille","country_code":"FR"},{"id":354,"code":"ULYSSFR","timezone":"Europe/Paris","bounds":{"min_lat":43.2336,"max_lat":43.7446,"min_lon":4.6187,"max_lon":5.2376},"bgtfs_hash":"a2aefb6b22fc7bcc8831c5e5c526e49f","bgtfs_feed_version":35053647,"bgtfs_uploaded_at":"2021-02-09T03:14:43Z","start_date":"2021-02-09","end_date":"2022-02-01","name":"Ulysse (Pays de Martigues, Istres-Ouest-Provence)","feed_network_name":"Ulysse","location":"Marseille","country_code":"FR"},{"id":356,"code":"LIBEBFR","timezone":"Europe/Paris","bounds":{"min_lat":43.3795,"max_lat":43.844,"min_lon":4.8206,"max_lon":5.487},"bgtfs_hash":"aad515c063744160321cf384949b2751","bgtfs_feed_version":35058142,"bgtfs_uploaded_at":"2021-02-09T15:43:49Z","start_date":"2021-02-09","end_date":"2021-12-03","name":"Libébus","feed_network_name":null,"location":"Salon de Provence","country_code":"FR"},{"id":357,"code":"LBDCOFR","timezone":"Europe/Paris","bounds":{"min_lat":43.1972,"max_lat":43.4605,"min_lon":5.3316,"max_lon":5.6311},"bgtfs_hash":"3f48f8ffe7d33505fe71e5bc3fa582ed","bgtfs_feed_version":34127694,"bgtfs_uploaded_at":"2020-10-25T00:09:05Z","start_date":"2020-10-25","end_date":"2021-08-24","name":"Les bus des Collines","feed_network_name":null,"location":"Allauch et Plan-de-Cuques","country_code":"FR"},{"id":359,"code":"LBDLMFR","timezone":"Europe/Paris","bounds":{"min_lat":43.0769,"max_lat":43.3808,"min_lon":5.252,"max_lon":5.7557},"bgtfs_hash":"28725b87d953b127d10f71a6d0de0ac7","bgtfs_feed_version":34680986,"bgtfs_uploaded_at":"2020-12-28T00:04:24Z","start_date":"2020-12-28","end_date":"2021-08-24","name":"Les bus de la Marcouline","feed_network_name":null,"location":"Cassis","country_code":"FR"},{"id":360,"code":"LBDLCBFR","timezone":"Europe/Paris","bounds":{"min_lat":43.2043,"max_lat":43.515,"min_lon":4.9604,"max_lon":5.5136},"bgtfs_hash":"f2105dde1bfd946ef0c9062cf6017e32","bgtfs_feed_version":35026615,"bgtfs_uploaded_at":"2021-02-06T00:09:25Z","start_date":"2021-02-06","end_date":"2021-08-26","name":"Les bus de la Côte Bleue","feed_network_name":null,"location":"Sausset-les-pins","country_code":"FR"},{"id":361,"code":"LBDLEFR","timezone":"Europe/Paris","bounds":{"min_lat":43.2703,"max_lat":43.6348,"min_lon":4.9824,"max_lon":5.5095},"bgtfs_hash":"a1a621023424d7492d3ce0ce65c30b75","bgtfs_feed_version":35069838,"bgtfs_uploaded_at":"2021-02-11T00:13:10Z","start_date":"2021-02-11","end_date":"2021-07-06","name":"Les bus de l'Étang","feed_network_name":null,"location":"Marignane","country_code":"FR"},{"id":362,"code":"LILAFR","timezone":"Europe/Paris","bounds":{"min_lat":46.7937,"max_lat":47.8262,"min_lon":-2.3507,"max_lon":-1.0276},"bgtfs_hash":"bff7a45fb0f6a91101254b22a62fe172","bgtfs_feed_version":35052869,"bgtfs_uploaded_at":"2021-02-09T01:05:04Z","start_date":"2021-02-09","end_date":"2021-08-31","name":"Aléop en Loire-Atlantique (ex-LILA, Mecatran data)","feed_network_name":"Aléop 44","location":"Nantes","country_code":"FR"},{"id":363,"code":"SNCF44FR","timezone":"Europe/Paris","bounds":{"min_lat":46.8992,"max_lat":47.8019,"min_lon":-2.6404,"max_lon":-0.7892},"bgtfs_hash":"0121728852a59b9d721d0fc2f17ca327","bgtfs_feed_version":34871136,"bgtfs_uploaded_at":"2021-01-19T00:16:11Z","start_date":"2021-01-19","end_date":"2021-04-18","name":"TER Loire-Atlantique","feed_network_name":null,"location":"Nantes","country_code":"FR"},{"id":365,"code":"EMTVCES","timezone":"Europe/Madrid","bounds":{"min_lat":39.172,"max_lat":39.6464,"min_lon":-0.5581,"max_lon":-0.1449},"bgtfs_hash":"7f9622d68e8486c1e22cadff88c8aa0e","bgtfs_feed_version":35061363,"bgtfs_uploaded_at":"2021-02-09T14:40:41Z","start_date":"2021-02-10","end_date":"2022-02-09","name":"EMT Valencia","feed_network_name":"EMT","location":"Valencia","country_code":"ES"},{"id":366,"code":"TITSAES","timezone":"Atlantic/Canary","bounds":{"min_lat":27.8895,"max_lat":28.6874,"min_lon":-17.0547,"max_lon":-16.0197},"bgtfs_hash":"f9b363f5c20f636de40f32319a21a44e","bgtfs_feed_version":34997853,"bgtfs_uploaded_at":"2021-02-02T16:15:45Z","start_date":"2021-02-02","end_date":"2021-07-31","name":"TITSA","feed_network_name":null,"location":"Tenerife","country_code":"MA"},{"id":367,"code":"CTWA","timezone":"America/Los_Angeles","bounds":{"min_lat":47.5082,"max_lat":48.3681,"min_lon":-122.5194,"max_lon":-121.4678},"bgtfs_hash":"f37366fc6d08249aaa3c96a131629c86","bgtfs_feed_version":34995281,"bgtfs_uploaded_at":"2021-02-02T09:06:57Z","start_date":"2021-02-02","end_date":"2021-03-20","name":"Community Transit","feed_network_name":"","location":"Seattle","country_code":"US"},{"id":368,"code":"ETWA","timezone":"America/Los_Angeles","bounds":{"min_lat":47.7924,"max_lat":48.0973,"min_lon":-122.4393,"max_lon":-122.0494},"bgtfs_hash":"aaee22bdef9f1e14003d52339fe3725d","bgtfs_feed_version":34826536,"bgtfs_uploaded_at":"2021-01-13T20:22:51Z","start_date":"2021-01-13","end_date":"2021-02-27","name":"Everett Transit","feed_network_name":"","location":"Seattle","country_code":"US"},{"id":370,"code":"BIBUSFR","timezone":"Europe/Paris","bounds":{"min_lat":48.2715,"max_lat":48.5445,"min_lon":-4.7571,"max_lon":-4.2152},"bgtfs_hash":"e297a63fbec0edc58c9d6f81061c53f0","bgtfs_feed_version":35061395,"bgtfs_uploaded_at":"2021-02-10T00:46:01Z","start_date":"2021-02-10","end_date":"2021-07-05","name":"Bibus","feed_network_name":null,"location":"Brest","country_code":"FR"},{"id":372,"code":"BCTPG","timezone":"America/Vancouver","bounds":{"min_lat":53.6976,"max_lat":54.1406,"min_lon":-123.0567,"max_lon":-122.512},"bgtfs_hash":"863b74cc453ab41c06eb764dbdd3314c","bgtfs_feed_version":34574773,"bgtfs_uploaded_at":"2020-12-15T17:02:25Z","start_date":"2020-12-15","end_date":"2021-04-25","name":"BC Transit (Prince George)","feed_network_name":"BC Transit Prince George","location":"Prince George","country_code":"CA"},{"id":373,"code":"METFR","timezone":"Europe/Paris","bounds":{"min_lat":48.9112,"max_lat":49.2772,"min_lon":5.8705,"max_lon":6.459},"bgtfs_hash":"c6682ca2058c777b72c6a733eb03a0c4","bgtfs_feed_version":34160149,"bgtfs_uploaded_at":"2020-10-28T18:18:24Z","start_date":"2020-09-02","end_date":"2021-07-04","name":"LE MET'","feed_network_name":null,"location":"Metz","country_code":"FR"},{"id":374,"code":"SNCF57FR","timezone":"Europe/Paris","bounds":{"min_lat":48.4351,"max_lat":49.5556,"min_lon":5.247,"max_lon":7.0457},"bgtfs_hash":"d136a6ea25196f5466d093edb22688a7","bgtfs_feed_version":34883932,"bgtfs_uploaded_at":"2021-01-20T11:48:54Z","start_date":"2021-01-20","end_date":"2021-04-18","name":"TER Moselle","feed_network_name":null,"location":"Metz","country_code":"FR"},{"id":376,"code":"RTCSQC","timezone":"America/Montreal","bounds":{"min_lat":46.401,"max_lat":46.7184,"min_lon":-72.8932,"max_lon":-72.5228},"bgtfs_hash":"999be0ad4fa2449ef9b7ccaafe5c5a8f","bgtfs_feed_version":34752287,"bgtfs_uploaded_at":"2021-01-05T06:07:57Z","start_date":"2021-01-05","end_date":"2021-12-31","name":"RTCS","feed_network_name":"","location":"Shawinigan","country_code":"CA"},{"id":377,"code":"PTFL","timezone":"America/New_York","bounds":{"min_lat":26.1983,"max_lat":27.0544,"min_lon":-80.8552,"max_lon":-79.8993},"bgtfs_hash":"ffb8b904bac40a78093df92f0de701a5","bgtfs_feed_version":34769556,"bgtfs_uploaded_at":"2021-01-07T06:06:12Z","start_date":"2021-01-07","end_date":"2021-05-08","name":"Palm Tran","feed_network_name":"","location":"Miami","country_code":"US"},{"id":382,"code":"STSAQC","timezone":"America/Montreal","bounds":{"min_lat":48.2104,"max_lat":48.6897,"min_lon":-71.5101,"max_lon":-70.7054},"bgtfs_hash":"96fd07ebfc6226adfa61514a3e255c5f","bgtfs_feed_version":34616215,"bgtfs_uploaded_at":"2020-12-20T12:09:22Z","start_date":"2020-12-20","end_date":"2021-04-04","name":"Société de Transport du Saguenay","feed_network_name":"","location":"Saguenay","country_code":"CA"},{"id":383,"code":"BARRON","timezone":"America/Toronto","bounds":{"min_lat":44.2308,"max_lat":44.5161,"min_lon":-79.8681,"max_lon":-79.4786},"bgtfs_hash":"bbb08e2be5f5e41f92f25eae3b0e1c05","bgtfs_feed_version":34985546,"bgtfs_uploaded_at":"2021-02-01T06:04:28Z","start_date":"2021-02-01","end_date":"2021-03-27","name":"Barrie Transit","feed_network_name":null,"location":"Simcoe County","country_code":"CA"},{"id":384,"code":"CTNB","timezone":"America/Moncton","bounds":{"min_lat":45.9495,"max_lat":46.2419,"min_lon":-65.0252,"max_lon":-64.5673},"bgtfs_hash":"7ccc71119193d71d9056111a566a67ce","bgtfs_feed_version":34626771,"bgtfs_uploaded_at":"2020-12-21T17:28:41Z","start_date":"2020-12-20","end_date":"2021-03-13","name":"Codiac Transpo","feed_network_name":"","location":"Moncton","country_code":"CA"},{"id":385,"code":"TRFL","timezone":"America/New_York","bounds":{"min_lat":25.6826,"max_lat":26.8777,"min_lon":-80.3935,"max_lon":-79.9287},"bgtfs_hash":"3e001a208539aa6731ec7b4e36d24742","bgtfs_feed_version":34778181,"bgtfs_uploaded_at":"2021-01-08T06:03:41Z","start_date":"2021-01-08","end_date":"2022-01-08","name":"South Florida Regional Transportation Authority","feed_network_name":"SFRTA","location":"Miami","country_code":"US"},